ms_uri,source_id,record_id,country,state_or_province,crs,other_names,site_name,commodity,deposit_type,longitude,latitude,location,GroupID_location,link_method,GroupID_text
https://minmod.isi.edu/resource/site__mrdata-usgs-gov-mrds__10067593,https://mrdata.usgs.gov/mrds,10067593,United States,Alaska,EPSG:4326,"",North Tip of Fleming Island,"balt,pper,","Arc U-M intru- sion nickel- copper-PGE,Laterite nickel,Vein cobalt ± Ni",-136.30871,57.78527,POINT (-136.3087099999999907 57.7852699999999828),274,GEO,https://mrdata.usgs.gov/mrds1443
https://minmod.isi.edu/resource/site__mrdata-usgs-gov-mrds__10085285,https://mrdata.usgs.gov/mrds,10085285,Finland,"",EPSG:4326,"",Enonkoski,"","Black shale nickel ± Mo- PGE,Laterite nickel,Ophiolite nickel-copper-PGE,Vein ± replacement nickel",26.26943,64.49892,POINT (26.2694299999999963 64.4989199999999983),145,GEO,https://mrdata.usgs.gov/mrds24
https://minmod.isi.edu/resource/site__mrdata-usgs-gov-mrds__60000643,https://mrdata.usgs.gov/mrds,60000643,South Africa,"",EPSG:4326,"Potgietersrus Limb,Tweefontein,Zwartfontein",Platreef,"balt,,pper, elements","U-M intrusion nickel-copper- PGE,U-M layered intrusion nickel- copper-PGE",28.90141,-23.9467,POINT (28.9014099999999985 -23.9466999999999999),426,GEO,https://mrdata.usgs.gov/mrds769
https://minmod.isi.edu/resource/site__mrdata-usgs-gov-mrds__10105495,https://mrdata.usgs.gov/mrds,10105495,United States,Maryland,EPSG:4326,"",Pataps,"balt,pper,","Anorthosite conduit nickel- copper-PGE,Ophiolite nickel-copper-PGE,Vein cobalt ± Ni",-76.87884,39.48613,POINT (-76.8788399999999825 39.4861300000000028),665,GEO,https://mrdata.usgs.gov/mrds667
https://minmod.isi.edu/resource/site__mrdata-usgs-gov-mrds__10024463,https://mrdata.usgs.gov/mrds,10024463,Canada,Ontario,EPSG:4326,"",Strathna,",balt,,Silver,pper, elements,Gold,",Impact U-M intrusion nickel- copper-PGE,-81.33896,46.67499,POINT (-81.3389599999999859 46.6749899999999940),755,GEO,https://mrdata.usgs.gov/mrds257
https://minmod.isi.edu/resource/site__mrdata-usgs-gov-mrds__10173251,https://mrdata.usgs.gov/mrds,10173251,United States,Montana,EPSG:4326,Spanish Peaks Primitive Area,Deer,",pper","Anorthosite conduit nickel- copper-PGE,U-M conduit nickel-copper- PGE",-111.21613,45.30021,POINT (-111.2161299999999926 45.3002099999999999),645,GEO,https://mrdata.usgs.gov/mrds207
https://minmod.isi.edu/resource/site__mrdata-usgs-gov-mrds__10109559,https://mrdata.usgs.gov/mrds,10109559,Canada,Ontario,EPSG:4326,"",Boundary,",,Gold,Silver,pper","Impact U-M intrusion nickel- copper-PGE,U-M conduit nickel-copper- PGE,U-M intrusion nickel-copper- PGE,U-M layered intrusion nickel- copper-PGE",-81.32312,46.69721,POINT (-81.3231200000000030 46.6972099999999983),755,GEO,https://mrdata.usgs.gov/mrds124
https://minmod.isi.edu/resource/site__mrdata-usgs-gov-mrds__10036920,https://mrdata.usgs.gov/mrds,10036920,United States,Washington,EPSG:4326,"",Bean Area 2,",Iron,","Hematite- dominant IOA,Iron oxide poly- metallic,Lacustrine iron formation,Oolitic iron formation,Paleochannel iron",-120.86451,47.40315,POINT (-120.8645100000000099 47.4031499999999895),622,GEO,https://mrdata.usgs.gov/mrds370
https://minmod.isi.edu/resource/site__mrdata-usgs-gov-mrds__10284358,https://mrdata.usgs.gov/mrds,10284358,United States,California,EPSG:4326,"",rral Laterite,",balt,",Laterite nickel,-124.01506,41.93902,POINT (-124.0150600000000054 41.9390199999999993),745,GEO,https://mrdata.usgs.gov/mrds3022
https://minmod.isi.edu/resource/site__mrdata-usgs-gov-mrds__10244067,https://mrdata.usgs.gov/mrds,10244067,United States,Missouri,EPSG:4326,"",Buick,"pper,,,,Silver,balt,","Kipushi-type sediment- hosted copper- zinc-lead,MVT zinc-lead,Replacement zinc-lead",-91.12263,37.60586,POINT (-91.1226300000000009 37.6058599999999998),489,GEO,https://mrdata.usgs.gov/mrds1316
https://minmod.isi.edu/resource/site__mrdata-usgs-gov-mrds__10201357,https://mrdata.usgs.gov/mrds,10201357,United States,Oregon,EPSG:4326,"Inc,Cobalt Gold Mines",Boulder,"balt,,Gold,,pper,Silver,",Vein five-element,-118.62745,44.55345,POINT (-118.6274499999999961 44.5534499999999980),543,GEO,https://mrdata.usgs.gov/mrds2480
https://minmod.isi.edu/resource/site__mrdata-usgs-gov-mrds__10039050,https://mrdata.usgs.gov/mrds,10039050,China,"",EPSG:4326,"",Sulfide X,"Gold,pper,,","Anorthosite conduit nickel- copper-PGE,Ophiolite nickel-copper-PGE,U-M conduit nickel-copper- PGE",103.83393,36.56139,POINT (103.8339299999999952 36.5613900000000029),287,GEO,https://mrdata.usgs.gov/mrds1856
https://minmod.isi.edu/resource/site__mrdata-usgs-gov-mrds__10019056,https://mrdata.usgs.gov/mrds,10019056,United States,Montana,EPSG:4326,"",Lucky Lode,"Gold,,,pper,Silver",Iron sulfide polymetallic,-114.58098,47.26877,POINT (-114.5809800000000109 47.2687700000000035),333,GEO,https://mrdata.usgs.gov/mrds2584
https://minmod.isi.edu/resource/site__mrdata-usgs-gov-mrds__10033286,https://mrdata.usgs.gov/mrds,10033286,United States,Oregon,EPSG:4326,"",Buckskin Ridge,"",Laterite nickel,-123.83255,42.0976,POINT (-123.8325499999999835 42.0975999999999999),745,GEO,https://mrdata.usgs.gov/mrds1796
https://minmod.isi.edu/resource/site__mrdata-usgs-gov-mrds__10058820,https://mrdata.usgs.gov/mrds,10058820,Chile,"",EPSG:4326,"",Unidentified,",balt","Vein cobalt ± Ni,Vein ± replacement nickel",-70.54954,-25.86416,POINT (-70.5495399999999933 -25.8641599999999947),68,GEO,https://mrdata.usgs.gov/mrds2875
https://minmod.isi.edu/resource/site__mrdata-usgs-gov-mrds__10212439,https://mrdata.usgs.gov/mrds,10212439,United States,California,EPSG:4326,"",Mazza,"","Black shale nickel ± Mo- PGE,Laterite nickel,Ophiolite nickel-copper-PGE,Vein ± replacement nickel,Volcanogenic manganese",-122.64026,38.16239,POINT (-122.6402599999999836 38.1623900000000020),3534,GEO,https://mrdata.usgs.gov/mrds3333
https://minmod.isi.edu/resource/site__mrdata-usgs-gov-mrds__10230377,https://mrdata.usgs.gov/mrds,10230377,Canada,Ontario,EPSG:4326,Sodbury Smelter,(Facility) Sudbury,",,Iron","Black shale nickel ± Mo- PGE,Impact U-M intrusion nickel- copper-PGE,U-M intrusion nickel-copper- PGE,U-M layered intrusion nickel- copper-PGE",-81.01648,46.49999,POINT (-81.0164800000000014 46.4999900000000039),752,GEO,https://mrdata.usgs.gov/mrds2368
https://minmod.isi.edu/resource/site__mrdata-usgs-gov-mrds__10039351,https://mrdata.usgs.gov/mrds,10039351,Turkey,"",EPSG:4326,Guleman-Elazig,Kefdag Chromite,"elements,,","Ophiolite chromium,Ophiolite nickel-copper-PGE,Vein ± replacement nickel",35.18123,39.05925,POINT (35.1812299999999993 39.0592499999999987),3456,GEO,https://mrdata.usgs.gov/mrds3255
https://minmod.isi.edu/resource/site__mrdata-usgs-gov-mrds__10256113,https://mrdata.usgs.gov/mrds,10256113,Australia,Western Australia,EPSG:4326,"",Fraser Range,",,,","Ophiolite chromium,U-M layered intrusion chromium",122.79915,-32.04606,POINT (122.7991499999999974 -32.0460599999999971),3541,GEO,https://mrdata.usgs.gov/mrds3340
https://minmod.isi.edu/resource/site__mrdata-usgs-gov-mrds__10038192,https://mrdata.usgs.gov/mrds,10038192,Denmark,"",EPSG:4326,"",Sarqa Pluton,"Silver,,,,,Gold,,pper,,","Anorthosite conduit nickel- copper-PGE,Arc U-M intru- sion nickel- copper-PGE,U-M intrusion nickel-copper- PGE,U-M layered intrusion PGE,U-M layered intrusion nickel- copper-PGE",-44.10635,60.36375,POINT (-44.1063499999999920 60.3637500000000031),0,GEO,https://mrdata.usgs.gov/mrds1760
https://minmod.isi.edu/resource/site__mrdata-usgs-gov-mrds__10056252,https://mrdata.usgs.gov/mrds,10056252,United States,Montana,EPSG:4326,"",Frog Pond East,"pper,Gold,,,,","U-M layered intrusion PGE,U-M layered intrusion nickel- copper-PGE",-110.10858,45.44714,POINT (-110.1085799999999892 45.4471399999999903),522,GEO,https://mrdata.usgs.gov/mrds521
https://minmod.isi.edu/resource/site__mrdata-usgs-gov-mrds__10096186,https://mrdata.usgs.gov/mrds,10096186,United States,Idaho,EPSG:4326,"",Hall Mountain 1,",pper","Arc U-M intru- sion nickel- copper-PGE,Ophiolite nickel-copper-PGE,U-M conduit nickel-copper- PGE,U-M intrusion nickel-copper- PGE,Vein ± replacement nickel",-116.40717,48.91097,POINT (-116.4071699999999936 48.9109699999999989),462,GEO,https://mrdata.usgs.gov/mrds2045
https://minmod.isi.edu/resource/site__mrdata-usgs-gov-mrds__10181559,https://mrdata.usgs.gov/mrds,10181559,Canada,Manitoba,EPSG:4326,"",Namew Lake,"pper,balt,","Komatiite nickel-copper-PGE,U-M conduit nickel-copper- PGE",-102.00062,54.33332,POINT (-102.0006199999999836 54.3333199999999934),430,GEO,https://mrdata.usgs.gov/mrds1599
https://minmod.isi.edu/resource/site__mrdata-usgs-gov-mrds__10184080,https://mrdata.usgs.gov/mrds,10184080,United States,Maine,EPSG:4326,"",Falmouth pper,"pper,","Bimodal-mafic VMS,Felsic-siliciclastic VMS,Mafic-ultramafic VMS",-70.27082,43.74186,POINT (-70.2708200000000005 43.7418599999999955),572,GEO,https://mrdata.usgs.gov/mrds14
https://minmod.isi.edu/resource/site__mrdata-usgs-gov-mrds__10000488,https://mrdata.usgs.gov/mrds,10000488,United States,Alaska,EPSG:4326,"4 Mine,Chrome Queen,Star",Red Mountain,",,balt","Ophiolite chromium,U-M layered intrusion chromium",-151.48032,59.35779,POINT (-151.4803199999999777 59.3577899999999872),45,GEO,https://mrdata.usgs.gov/mrds271
https://minmod.isi.edu/resource/site__mrdata-usgs-gov-mrds__10158181,https://mrdata.usgs.gov/mrds,10158181,Canada,Ontario,EPSG:4326,No Alternative Names,Garson,"pper,Gold,,balt, elements,Silver","Impact U-M intrusion nickel- copper-PGE,Komatiite nickel-copper-PGE,U-M conduit nickel-copper- PGE,U-M intrusion nickel-copper- PGE,U-M layered intrusion nickel- copper-PGE",-81.86231,46.56669,POINT (-81.8623099999999795 46.5666900000000012),704,GEO,https://mrdata.usgs.gov/mrds742
https://minmod.isi.edu/resource/site__mrdata-usgs-gov-mrds__10147969,https://mrdata.usgs.gov/mrds,10147969,United States,Missouri,EPSG:4326,"",Number Two,",balt,,pper",Vein cobalt ± Ni,-90.49181,37.74316,POINT (-90.4918100000000010 37.7431600000000032),459,GEO,https://mrdata.usgs.gov/mrds2666
https://minmod.isi.edu/resource/site__mrdata-usgs-gov-mrds__10055845,https://mrdata.usgs.gov/mrds,10055845,United States,Washington,EPSG:4326,"Davenport,Nigger Creek Iron",Negro Iron,",,Iron",Laterite nickel,-120.73917,47.04078,POINT (-120.7391700000000014 47.0407799999999980),580,GEO,https://mrdata.usgs.gov/mrds2691
https://minmod.isi.edu/resource/site__mrdata-usgs-gov-mrds__10038819,https://mrdata.usgs.gov/mrds,10038819,South Africa,"",EPSG:4326,"",Rooikoppiesfontein,",","Anorthosite conduit nickel- copper-PGE,U-M layered intrusion PGE",25.09406,-28.99506,POINT (25.0940599999999989 -28.9950599999999987),197,GEO,https://mrdata.usgs.gov/mrds2001
https://minmod.isi.edu/resource/site__mrdata-usgs-gov-mrds__10079612,https://mrdata.usgs.gov/mrds,10079612,Indonesia,"",EPSG:4326,"",Gag,",balt",Laterite nickel,129.83246,0.16825,POINT (129.8324599999999975 0.1682500000000000),155,GEO,https://mrdata.usgs.gov/mrds554
https://minmod.isi.edu/resource/site__mrdata-usgs-gov-mrds__10036926,https://mrdata.usgs.gov/mrds,10036926,United States,Washington,EPSG:4326,"",Stafford Area 1,"Iron,,","Hematite- dominant IOA,Iron oxide poly- metallic,Lacustrine iron formation",-120.80396,47.39899,POINT (-120.8039600000000036 47.3989899999999906),622,GEO,https://mrdata.usgs.gov/mrds143
https://minmod.isi.edu/resource/site__mrdata-usgs-gov-mrds__10067845,https://mrdata.usgs.gov/mrds,10067845,United States,Maryland,EPSG:4326,"",Bare Hills pper,"pper,,balt","Anorthosite conduit nickel- copper-PGE,Magnetite- dominant IOCG",-76.66355,39.37503,POINT (-76.6635500000000008 39.3750299999999953),666,GEO,https://mrdata.usgs.gov/mrds677
https://minmod.isi.edu/resource/site__mrdata-usgs-gov-mrds__10183526,https://mrdata.usgs.gov/mrds,10183526,Australia,Western Australia,EPSG:4326,"",Siberia,",balt","Laterite nickel,Vein cobalt ± Ni",121.3325,-30.7461,POINT (121.3324999999999960 -30.7461000000000020),656,GEO,https://mrdata.usgs.gov/mrds3075
https://minmod.isi.edu/resource/site__mrdata-usgs-gov-mrds__10005975,https://mrdata.usgs.gov/mrds,10005975,Bolivia,"",EPSG:4326,"Yokohama,El Zorro,Anaconda",Jokolluni,",,pper,,,,,Silver",Vein tin polymetallic,-69.14481,-17.30489,POINT (-69.1448100000000068 -17.3048899999999968),204,GEO,https://mrdata.usgs.gov/mrds3015
https://minmod.isi.edu/resource/site__mrdata-usgs-gov-mrds__10071874,https://mrdata.usgs.gov/mrds,10071874,United States,Montana,EPSG:4326,"",Hidden Hand,",,,,pper,Gold,Silver,",Vein five-element,-112.57867,46.38712,POINT (-112.5786700000000025 46.3871199999999959),642,GEO,https://mrdata.usgs.gov/mrds475
https://minmod.isi.edu/resource/site__mrdata-usgs-gov-mrds__10200765,https://mrdata.usgs.gov/mrds,10200765,United States,Oregon,EPSG:4326,Geo F Beiber Property,Beiber,",pper","U-M conduit nickel-copper- PGE,Vein ± replacement nickel",-117.63463,44.78126,POINT (-117.6346300000000014 44.7812599999999961),434,GEO,https://mrdata.usgs.gov/mrds1185
https://minmod.isi.edu/resource/site__mrdata-usgs-gov-mrds__10001129,https://mrdata.usgs.gov/mrds,10001129,United States,Alaska,EPSG:4326,"",Unnamed,"Gold,pper,Silver,","Komatiite nickel-copper-PGE,U-M conduit nickel-copper- PGE,Vein ± replacement nickel",-146.0808,63.34855,POINT (-146.0808000000000106 63.3485500000000101),377,GEO,https://mrdata.usgs.gov/mrds227
https://minmod.isi.edu/resource/site__mrdata-usgs-gov-mrds__10069216,https://mrdata.usgs.gov/mrds,10069216,Australia,Western Australia,EPSG:4326,"",Digger Rocks,"","Black shale nickel ± Mo- PGE,Komatiite nickel-copper-PGE,Laterite nickel,Vein ± replacement nickel",119.91589,-32.5627,POINT (119.9158899999999761 -32.5626999999999924),259,GEO,https://mrdata.usgs.gov/mrds1183
https://minmod.isi.edu/resource/site__mrdata-usgs-gov-mrds__10024511,https://mrdata.usgs.gov/mrds,10024511,Zimbabwe,"",EPSG:4326,"",Shangani,"pper,",Komatiite nickel-copper-PGE,29.25137,-19.6636,POINT (29.2513699999999979 -19.6635999999999989),425,GEO,https://mrdata.usgs.gov/mrds307
https://minmod.isi.edu/resource/site__mrdata-usgs-gov-mrds__10134154,https://mrdata.usgs.gov/mrds,10134154,Australia,Queensland,EPSG:4326,"Greenvale,Queensland Mines",Greenvale Laterite,"balt,",Laterite nickel,145.0988,-18.96359,POINT (145.0987999999999829 -18.9635899999999999),191,GEO,https://mrdata.usgs.gov/mrds191
https://minmod.isi.edu/resource/site__mrdata-usgs-gov-mrds__10036923,https://mrdata.usgs.gov/mrds,10036923,United States,Washington,EPSG:4326,"",Iron Peak Area 3,",Iron,","Hematite- dominant IOA,Lacustrine iron formation,Oolitic iron formation",-120.90924,47.40704,POINT (-120.9092400000000112 47.4070399999999950),622,GEO,https://mrdata.usgs.gov/mrds1824
https://minmod.isi.edu/resource/site__mrdata-usgs-gov-mrds__10172995,https://mrdata.usgs.gov/mrds,10172995,United States,Montana,EPSG:4326,"",Lucky Allen,"pper,","Anorthosite conduit nickel- copper-PGE,U-M conduit nickel-copper- PGE,Vein ± replacement nickel",-110.69142,45.30161,POINT (-110.6914200000000079 45.3016099999999895),538,GEO,https://mrdata.usgs.gov/mrds1336
https://minmod.isi.edu/resource/site__mrdata-usgs-gov-mrds__10033291,https://mrdata.usgs.gov/mrds,10033291,United States,Oregon,EPSG:4326,"",Upper Chet Square Lake,"","Arc U-M intru- sion nickel- copper-PGE,Laterite nickel,Vein ± replacement nickel",-123.89366,42.16454,POINT (-123.8936599999999970 42.1645400000000024),745,GEO,https://mrdata.usgs.gov/mrds1382
https://minmod.isi.edu/resource/site__mrdata-usgs-gov-mrds__10067580,https://mrdata.usgs.gov/mrds,10067580,United States,California,EPSG:4326,"",Marjon,",balt","Laterite nickel,Vein cobalt ± Ni",-120.44406,38.18713,POINT (-120.4440599999999932 38.1871299999999962),702,GEO,https://mrdata.usgs.gov/mrds3033
https://minmod.isi.edu/resource/site__mrdata-usgs-gov-mrds__10176822,https://mrdata.usgs.gov/mrds,10176822,United States,Oregon,EPSG:4326,Jensen Group,Last Chance,",pper,Gold,Silver,,,balt",Vein five-element,-118.70135,44.51175,POINT (-118.7013500000000192 44.5117499999999993),543,GEO,https://mrdata.usgs.gov/mrds926
https://minmod.isi.edu/resource/site__mrdata-usgs-gov-mrds__10288495,https://mrdata.usgs.gov/mrds,10288495,Australia,Western Australia,EPSG:4326,"Windarra,Mt,South Windarra",South Windarra,",pper","Arc U-M intru- sion nickel- copper-PGE,Impact U-M intrusion nickel- copper-PGE,Komatiite nickel-copper-PGE,Laterite nickel",122.1492,-28.5295,POINT (122.1492000000000075 -28.5294999999999987),587,GEO,https://mrdata.usgs.gov/mrds170
https://minmod.isi.edu/resource/site__mrdata-usgs-gov-mrds__10285467,https://mrdata.usgs.gov/mrds,10285467,United States,California,EPSG:4326,"",Krohn Ward,"balt,","Laterite nickel,Vein cobalt ± Ni,Vein ± replacement nickel",-119.86677,37.04714,POINT (-119.8667700000000025 37.0471399999999988),627,GEO,https://mrdata.usgs.gov/mrds26
https://minmod.isi.edu/resource/site__mrdata-usgs-gov-mrds__10079588,https://mrdata.usgs.gov/mrds,10079588,Finland,"",EPSG:4326,"",Finland,",balt","Laterite nickel,Ophiolite nickel-copper-PGE,Vein ± replacement nickel",22.33614,61.24854,POINT (22.3361400000000003 61.2485399999999984),253,GEO,https://mrdata.usgs.gov/mrds1517
https://minmod.isi.edu/resource/site__mrdata-usgs-gov-mrds__10039233,https://mrdata.usgs.gov/mrds,10039233,Guatemala,"",EPSG:4326,La Gloria,Eximbal,"balt,, elements",Laterite nickel,-89.33339,16.50077,POINT (-89.3333899999999801 16.5007699999999993),84,GEO,https://mrdata.usgs.gov/mrds1961
https://minmod.isi.edu/resource/site__mrdata-usgs-gov-mrds__10042685,https://mrdata.usgs.gov/mrds,10042685,United States,Oregon,EPSG:4326,United Copper,Fall pper,"Silver,,pper,Gold,","Bimodal-mafic VMS,Iron sulfide polymetallic,Mafic-ultramafic VMS",-123.76866,42.29538,POINT (-123.7686600000000112 42.2953800000000015),747,GEO,https://mrdata.usgs.gov/mrds698
https://minmod.isi.edu/resource/site__mrdata-usgs-gov-mrds__10155629,https://mrdata.usgs.gov/mrds,10155629,United States,Washington,EPSG:4326,"",Red Rock,",","Arc U-M intru- sion nickel- copper-PGE,U-M layered intrusion chromium,Vein ± replacement nickel",-121.00398,47.12922,POINT (-121.0039799999999701 47.1292199999999895),580,GEO,https://mrdata.usgs.gov/mrds683
https://minmod.isi.edu/resource/site__mrdata-usgs-gov-mrds__10231013,https://mrdata.usgs.gov/mrds,10231013,Serbia,"",EPSG:4326,Golos and Cikatovo Deposit,Cikatova,"",Laterite nickel,20.86856,42.88202,POINT (20.8685599999999951 42.8820199999999900),277,GEO,https://mrdata.usgs.gov/mrds1741
https://minmod.isi.edu/resource/site__mrdata-usgs-gov-mrds__10255860,https://mrdata.usgs.gov/mrds,10255860,Philippines,"",EPSG:4326,"Catmonan-Magum Area,Pajada",Pujada Peninsula,"Water,Iron,balt,,,,",Laterite nickel,126.1892,6.71094,POINT (126.1891999999999996 6.7109399999999999),185,GEO,https://mrdata.usgs.gov/mrds776
https://minmod.isi.edu/resource/site__mrdata-usgs-gov-mrds__10067848,https://mrdata.usgs.gov/mrds,10067848,United States,Maine,EPSG:4326,"",Katahdin Iron Works,"pper,,balt,Iron","Impact U-M intrusion nickel- copper-PGE,Iron sulfide polymetallic",-69.19117,45.43996,POINT (-69.1911699999999996 45.4399599999999992),555,GEO,https://mrdata.usgs.gov/mrds2019
https://minmod.isi.edu/resource/site__mrdata-usgs-gov-mrds__10221723,https://mrdata.usgs.gov/mrds,10221723,United States,Montana,EPSG:4326,"",Hope,"","Anorthosite conduit nickel- copper-PGE,Vein ± replacement nickel",-110.57891,45.29131,POINT (-110.5789099999999792 45.2913099999999957),538,GEO,https://mrdata.usgs.gov/mrds413
https://minmod.isi.edu/resource/site__mrdata-usgs-gov-mrds__10245799,https://mrdata.usgs.gov/mrds,10245799,United States,Montana,EPSG:4326,"",Troy Dike,"","Anorthosite conduit nickel- copper-PGE,Impact U-M intrusion nickel- copper-PGE,U-M conduit nickel-copper- PGE,Vein ± replacement nickel",-115.91774,48.37487,POINT (-115.9177399999999807 48.3748699999999943),394,GEO,https://mrdata.usgs.gov/mrds2582
https://minmod.isi.edu/resource/site__mrdata-usgs-gov-mrds__10146828,https://mrdata.usgs.gov/mrds,10146828,United States,Missouri,EPSG:4326,Aubuchon Mine,Aubuchen,",,balt,,pper",Irish-type sediment- hosted zinc- lead,-90.4445,37.48367,POINT (-90.4444999999999908 37.4836699999999894),576,GEO,https://mrdata.usgs.gov/mrds1866
https://minmod.isi.edu/resource/site__mrdata-usgs-gov-mrds__10065639,https://mrdata.usgs.gov/mrds,10065639,Chile,"",EPSG:4326,"",Laguna Del Maule,"pper,,,","Hematite- dominant IOCG,Porphyry copper- molybdenum,Volcanic-hosted copper",-70.48282,-36.03082,POINT (-70.4828200000000038 -36.0308199999999985),111,GEO,https://mrdata.usgs.gov/mrds2425
https://minmod.isi.edu/resource/site__mrdata-usgs-gov-mrds__10088865,https://mrdata.usgs.gov/mrds,10088865,United States,Washington,EPSG:4326,"",Cultus Mountain,",,,","",-122.14513,48.41564,POINT (-122.1451299999999662 48.4156400000000033),673,GEO,https://mrdata.usgs.gov/mrds242
https://minmod.isi.edu/resource/site__mrdata-usgs-gov-mrds__10045365,https://mrdata.usgs.gov/mrds,10045365,United States,Nevada,EPSG:4326,"",Lovelock,"pper,,balt","Laterite nickel,Vein cobalt ± Ni,Vein ± replacement nickel",-117.91457,39.99684,POINT (-117.9145699999999977 39.9968399999999988),608,GEO,https://mrdata.usgs.gov/mrds702
https://minmod.isi.edu/resource/site__mrdata-usgs-gov-mrds__10106907,https://mrdata.usgs.gov/mrds,10106907,Finland,"",EPSG:4326,"",Vammala,"elements,,pper","Arc U-M intru- sion nickel- copper-PGE,Impact U-M intrusion nickel- copper-PGE,Komatiite nickel-copper-PGE,U-M intrusion nickel-copper- PGE,U-M layered intrusion nickel- copper-PGE",24.90277,61.33181,POINT (24.9027700000000003 61.3318099999999973),146,GEO,https://mrdata.usgs.gov/mrds889
https://minmod.isi.edu/resource/site__mrdata-usgs-gov-mrds__10053357,https://mrdata.usgs.gov/mrds,10053357,United States,Oregon,EPSG:4326,"","","","Black shale nickel ± Mo- PGE,Laterite nickel,Ophiolite nickel-copper-PGE,Vein ± replacement nickel",-123.29865,42.4101,POINT (-123.2986499999999950 42.4100999999999999),602,GEO,https://mrdata.usgs.gov/mrds647
https://minmod.isi.edu/resource/site__mrdata-usgs-gov-mrds__10056262,https://mrdata.usgs.gov/mrds,10056262,United States,Montana,EPSG:4326,"",Majestic,"pper,,,","Anorthosite conduit nickel- copper-PGE,U-M layered intrusion PGE",-110.21469,45.50881,POINT (-110.2146899999999903 45.5088099999999898),522,GEO,https://mrdata.usgs.gov/mrds838
https://minmod.isi.edu/resource/site__mrdata-usgs-gov-mrds__10281325,https://mrdata.usgs.gov/mrds,10281325,Zimbabwe,Manicaland,EPSG:4326,"",(Facility) Bindura Refinery,"pper,,balt","Komatiite nickel-copper-PGE,Laterite nickel",31.35132,-17.33036,POINT (31.3513200000000012 -17.3303599999999953),298,GEO,https://mrdata.usgs.gov/mrds1554
https://minmod.isi.edu/resource/site__mrdata-usgs-gov-mrds__10069626,https://mrdata.usgs.gov/mrds,10069626,Philippines,"",EPSG:4326,"",Espana,",balt",Laterite nickel,122.51594,12.38372,POINT (122.5159400000000147 12.3837199999999985),291,GEO,https://mrdata.usgs.gov/mrds2524
https://minmod.isi.edu/resource/site__mrdata-usgs-gov-mrds__10069680,https://mrdata.usgs.gov/mrds,10069680,Philippines,"",EPSG:4326,"",Pali,",pper","Ophiolite nickel-copper-PGE,Vein ± replacement nickel",120.03265,15.61674,POINT (120.0326500000000038 15.6167400000000001),229,GEO,https://mrdata.usgs.gov/mrds2974
https://minmod.isi.edu/resource/site__mrdata-usgs-gov-mrds__10068224,https://mrdata.usgs.gov/mrds,10068224,United States,Virginia,EPSG:4326,"",Unnamed Open Cut,",balt,","Lacustrine manganese,Nodule manganese,Supergene manganese",-81.39982,36.80008,POINT (-81.3998199999999912 36.8000800000000012),3366,GEO,https://mrdata.usgs.gov/mrds3165
https://minmod.isi.edu/resource/site__mrdata-usgs-gov-mrds__10282612,https://mrdata.usgs.gov/mrds,10282612,United States,Alaska,EPSG:4326,"",Unnamed,"Iron,,,","Ophiolite chromium,U-M layered intrusion chromium,Vein ± replacement nickel",-148.06583,60.32265,POINT (-148.0658299999999770 60.3226499999999959),374,GEO,https://mrdata.usgs.gov/mrds227
https://minmod.isi.edu/resource/site__mrdata-usgs-gov-mrds__10155474,https://mrdata.usgs.gov/mrds,10155474,United States,Washington,EPSG:4326,Shamrock,Iron,"Gold,,,,Silver","Iron oxide gold,Iron oxide poly- metallic,Iron silicate polymetallic",-118.62752,48.14564,POINT (-118.6275199999999899 48.1456400000000002),492,GEO,https://mrdata.usgs.gov/mrds165
https://minmod.isi.edu/resource/site__mrdata-usgs-gov-mrds__10069269,https://mrdata.usgs.gov/mrds,10069269,Venezuela,Cojedes,EPSG:4326,"",Tinaquillo Venezuela,",",Laterite nickel,-68.39953,9.88441,POINT (-68.3995299999999986 9.8844099999999990),64,GEO,https://mrdata.usgs.gov/mrds1462
https://minmod.isi.edu/resource/site__mrdata-usgs-gov-mrds__60000605,https://mrdata.usgs.gov/mrds,60000605,Cuba,"",EPSG:4326,"Levisa Bay Deposit,Marti and Pinares Mine,Ramona-Loma Mulo Deposit and Ramona Deposit",Nicaro,",,balt,Iron",Laterite nickel,-75.54969,20.58388,POINT (-75.5496899999999840 20.5838800000000006),268,GEO,https://mrdata.usgs.gov/mrds2287
https://minmod.isi.edu/resource/site__mrdata-usgs-gov-mrds__10185729,https://mrdata.usgs.gov/mrds,10185729,United States,Alaska,EPSG:4326,"",Unnamed 10,"pper,Silver,Gold,",U-M conduit nickel-copper- PGE,-146.00413,63.29966,POINT (-146.0041300000000035 63.2996599999999887),377,GEO,https://mrdata.usgs.gov/mrds1148
https://minmod.isi.edu/resource/site__mrdata-usgs-gov-mrds__10310452,https://mrdata.usgs.gov/mrds,10310452,United States,Nevada,EPSG:4326,"Chukar,Gold Quarry Mine Area",Chukar Footwall,"Silver,pper,,,,Gold,,,,,,","Carlin-type gold,Distal- disseminated silver-gold",-116.20925,40.79158,POINT (-116.2092500000000115 40.7915799999999962),540,GEO,https://mrdata.usgs.gov/mrds1209
https://minmod.isi.edu/resource/site__mrdata-usgs-gov-mrds__10095812,https://mrdata.usgs.gov/mrds,10095812,United States,Oregon,EPSG:4326,"",Illinois River Sulfide,"pper,balt,,Gold,,","Arc U-M intru- sion nickel- copper-PGE,Ophiolite nickel-copper-PGE",-124.01145,42.42982,POINT (-124.0114500000000106 42.4298199999999994),733,GEO,https://mrdata.usgs.gov/mrds2111
https://minmod.isi.edu/resource/site__mrdata-usgs-gov-mrds__10110438,https://mrdata.usgs.gov/mrds,10110438,Canada,Manitoba,EPSG:4326,"",Canada,"balt,,pper","Impact U-M intrusion nickel- copper-PGE,U-M conduit nickel-copper- PGE,U-M intrusion nickel-copper- PGE,U-M layered intrusion nickel- copper-PGE",-98.33382,55.50006,POINT (-98.3338199999999887 55.5000599999999977),615,GEO,https://mrdata.usgs.gov/mrds7
https://minmod.isi.edu/resource/site__mrdata-usgs-gov-mrds__10308654,https://mrdata.usgs.gov/mrds,10308654,United States,Alaska,EPSG:4326,"",Unnamed,"Iron,pper,,,",U-M conduit nickel-copper- PGE,-153.96285,62.38848,POINT (-153.9628499999999747 62.3884800000000084),343,GEO,https://mrdata.usgs.gov/mrds227
https://minmod.isi.edu/resource/site__mrdata-usgs-gov-mrds__10229148,https://mrdata.usgs.gov/mrds,10229148,United States,Washington,EPSG:4326,"",Blue Bird,"pper,Silver,Gold,","",-121.57812,48.25061,POINT (-121.5781199999999700 48.2506100000000018),670,GEO,https://mrdata.usgs.gov/mrds1671
https://minmod.isi.edu/resource/site__mrdata-usgs-gov-mrds__10036657,https://mrdata.usgs.gov/mrds,10036657,United States,Oregon,EPSG:4326,"",Black Rock,",,Silver","Ophiolite chromium,U-M layered intrusion chromium",-118.78577,44.33207,POINT (-118.7857700000000136 44.3320699999999945),544,GEO,https://mrdata.usgs.gov/mrds523
https://minmod.isi.edu/resource/site__mrdata-usgs-gov-mrds__10067588,https://mrdata.usgs.gov/mrds,10067588,United States,California,EPSG:4326,"",pnis,",balt,pper",Vein cobalt ± Ni,-118.55538,37.14662,POINT (-118.5553799999999995 37.1466199999999986),561,GEO,https://mrdata.usgs.gov/mrds1631
https://minmod.isi.edu/resource/site__mrdata-usgs-gov-mrds__10258629,https://mrdata.usgs.gov/mrds,10258629,United States,Alaska,EPSG:4326,"P,Fleming Island,Juneau Sea Level Copper Mines,H,Alaska Trust,Davison Bay,Alaska Nickel Mines,S,Ilene Claims,Vevelstad",Mirror Harbor,", elements,pper,balt","Arc U-M intru- sion nickel- copper-PGE,Ophiolite nickel-copper-PGE,U-M conduit nickel-copper- PGE,U-M layered intrusion nickel- copper-PGE",-136.30894,57.78501,POINT (-136.3089400000000069 57.7850099999999927),274,GEO,https://mrdata.usgs.gov/mrds1142
https://minmod.isi.edu/resource/site__mrdata-usgs-gov-mrds__10002238,https://mrdata.usgs.gov/mrds,10002238,United States,Alaska,EPSG:4326,"",Unnamed (near Desolation Glacier),"Gold,,pper,","Arc U-M intru- sion nickel- copper-PGE,U-M conduit nickel-copper- PGE",-137.57214,58.77971,POINT (-137.5721399999999619 58.7797100000000086),500,GEO,https://mrdata.usgs.gov/mrds2541
https://minmod.isi.edu/resource/site__mrdata-usgs-gov-mrds__10108244,https://mrdata.usgs.gov/mrds,10108244,United States,Colorado,EPSG:4326,Copper King,pper King,"balt,pper,","Komatiite nickel-copper-PGE,Vein ± replacement nickel",-105.42031,40.05527,POINT (-105.4203100000000006 40.0552699999999930),545,GEO,https://mrdata.usgs.gov/mrds225
https://minmod.isi.edu/resource/site__mrdata-usgs-gov-mrds__10010082,https://mrdata.usgs.gov/mrds,10010082,United States,Missouri,EPSG:4326,"Buckeye,North American Lead Co,National Lead Co,Missouri Cobalt Mine,Copper Creek",Madison,",Silver,Iron,balt,pper,","Kipushi-type sediment- hosted copper- zinc-lead,MVT zinc-lead,Sandstone-hosted zinc-lead",-90.27899,37.5509,POINT (-90.2789899999999790 37.5508999999999986),559,GEO,https://mrdata.usgs.gov/mrds125
https://minmod.isi.edu/resource/site__mrdata-usgs-gov-mrds__10245894,https://mrdata.usgs.gov/mrds,10245894,United States,Montana,EPSG:4326,"",Unnamed,"","Anorthosite conduit nickel- copper-PGE,Black shale nickel ± Mo- PGE,Impact U-M intrusion nickel- copper-PGE,U-M intrusion nickel-copper- PGE,Vein ± replacement nickel",-112.42587,45.0966,POINT (-112.4258700000000033 45.0965999999999951),713,GEO,https://mrdata.usgs.gov/mrds227
https://minmod.isi.edu/resource/site__mrdata-usgs-gov-mrds__10067860,https://mrdata.usgs.gov/mrds,10067860,United States,Georgia,EPSG:4326,Smith-Candless,Smith Mccandless,"balt,",Bimodal felsic VMS,-85.08324,33.85014,POINT (-85.0832399999999893 33.8501400000000032),557,GEO,https://mrdata.usgs.gov/mrds1084
https://minmod.isi.edu/resource/site__mrdata-usgs-gov-mrds__10092674,https://mrdata.usgs.gov/mrds,10092674,United States,Washington,EPSG:4326,"",Cavanaugh Lake,"","Anorthosite conduit nickel- copper-PGE,Arc U-M intru- sion nickel- copper-PGE,Black shale nickel ± Mo- PGE,U-M intrusion nickel-copper- PGE",-121.95623,48.30287,POINT (-121.9562300000000050 48.3028699999999915),624,GEO,https://mrdata.usgs.gov/mrds1162
https://minmod.isi.edu/resource/site__mrdata-usgs-gov-mrds__10036898,https://mrdata.usgs.gov/mrds,10036898,United States,Washington,EPSG:4326,"",Blue Bonnet,",pper,Silver,Gold",Laterite nickel,-121.02396,47.45038,POINT (-121.0239600000000166 47.4503799999999956),622,GEO,https://mrdata.usgs.gov/mrds194
https://minmod.isi.edu/resource/site__mrdata-usgs-gov-mrds__10270357,https://mrdata.usgs.gov/mrds,10270357,United States,Montana,EPSG:4326,"",Dalys Spur Area,"Cerium,,,Samarium,Thulium,Dysprosium,Ytterbium,,,Europium,Yttrium,Gadolinium,Holmium,Terbium,Erbium,Lutetium,Praseodymium,Neodymium, ,Lanthanum,",Phosphorite,-112.78258,45.093,POINT (-112.7825799999999816 45.0929999999999964),711,GEO,https://mrdata.usgs.gov/mrds1058
https://minmod.isi.edu/resource/site__mrdata-usgs-gov-mrds__10039217,https://mrdata.usgs.gov/mrds,10039217,Canada,Ontario,EPSG:4326,"",Longvack South,"pper,Silver,,,Gold","Anorthosite conduit nickel- copper-PGE,Impact U-M intrusion nickel- copper-PGE,U-M conduit nickel-copper- PGE,U-M intrusion nickel-copper- PGE",-81.33312,46.66666,POINT (-81.3331199999999939 46.6666600000000003),755,GEO,https://mrdata.usgs.gov/mrds7
https://minmod.isi.edu/resource/site__mrdata-usgs-gov-mrds__10277362,https://mrdata.usgs.gov/mrds,10277362,United States,Washington,EPSG:4326,"",Blewett Pass Pitwash Alloy,",Iron,","Iron silicate polymetallic,Vein ± replacement nickel",-120.65337,47.39652,POINT (-120.6533699999999953 47.3965200000000024),622,GEO,https://mrdata.usgs.gov/mrds2668
https://minmod.isi.edu/resource/site__mrdata-usgs-gov-mrds__10230222,https://mrdata.usgs.gov/mrds,10230222,Canada,Manitoba,EPSG:4326,Soab North MineSoab,Soab,"Silver,, elements,Gold,,,balt,pper","Impact U-M intrusion nickel- copper-PGE,Komatiite nickel-copper-PGE,U-M intrusion nickel-copper- PGE,U-M layered intrusion nickel- copper-PGE",-90.40794,55.23538,POINT (-90.4079399999999822 55.2353799999999922),3495,GEO,https://mrdata.usgs.gov/mrds3294
https://minmod.isi.edu/resource/site__mrdata-usgs-gov-mrds__10041302,https://mrdata.usgs.gov/mrds,10041302,United States,Washington,EPSG:4326,Iron Creek,Shamrock,",Gold,Silver,,pper,","Black shale nickel ± Mo- PGE,Vein ± replacement nickel",-118.62834,48.14512,POINT (-118.6283399999999943 48.1451199999999915),492,GEO,https://mrdata.usgs.gov/mrds89
https://minmod.isi.edu/resource/site__mrdata-usgs-gov-mrds__10185467,https://mrdata.usgs.gov/mrds,10185467,United States,Alaska,EPSG:4326,"",Linda,"","Black shale nickel ± Mo- PGE,Ophiolite nickel-copper-PGE,Vein ± replacement nickel",-136.39375,57.95391,POINT (-136.3937500000000114 57.9539100000000005),338,GEO,https://mrdata.usgs.gov/mrds1968
https://minmod.isi.edu/resource/site__mrdata-usgs-gov-mrds__10036943,https://mrdata.usgs.gov/mrds,10036943,United States,Washington,EPSG:4326,"",Non Pareil,"Gold,,pper,balt,Silver","Vein copper,Vein polymetallic",-121.44815,47.85564,POINT (-121.4481499999999841 47.8556400000000011),686,GEO,https://mrdata.usgs.gov/mrds692
https://minmod.isi.edu/resource/site__mrdata-usgs-gov-mrds__10033088,https://mrdata.usgs.gov/mrds,10033088,United States,Oregon,EPSG:4326,"Smuggler,Grover Cleveland,Juniper",Standard,",,pper,Gold,,Silver,,,balt","",-118.68077,44.54596,POINT (-118.6807699999999812 44.5459599999999938),543,GEO,https://mrdata.usgs.gov/mrds34
https://minmod.isi.edu/resource/site__mrdata-usgs-gov-mrds__10079623,https://mrdata.usgs.gov/mrds,10079623,Brazil,Minas Gerais,EPSG:4326,"",Brazil,"","Impact U-M intrusion nickel- copper-PGE,Laterite nickel,Vein ± replacement nickel",-41.66558,-19.83081,POINT (-41.6655799999999985 -19.8308099999999961),112,GEO,https://mrdata.usgs.gov/mrds1086
https://minmod.isi.edu/resource/site__mrdata-usgs-gov-mrds__60001628,https://mrdata.usgs.gov/mrds,60001628,India,Nagaland,EPSG:4326,"",Tuensang,"",Laterite nickel,94.74995,26.26578,POINT (94.7499499999999841 26.2657799999999959),321,GEO,https://mrdata.usgs.gov/mrds1728
https://minmod.isi.edu/resource/site__mrdata-usgs-gov-mrds__10067854,https://mrdata.usgs.gov/mrds,10067854,United States,Idaho,EPSG:4326,Howe Sound Adit Mine,Howe Sound,",,balt,Gold,pper","Vein cobalt ± Ni,Vein five-element",-114.35028,45.12577,POINT (-114.3502799999999979 45.1257699999999957),466,GEO,https://mrdata.usgs.gov/mrds982
https://minmod.isi.edu/resource/site__mrdata-usgs-gov-mrds__10068456,https://mrdata.usgs.gov/mrds,10068456,Colombia,"",EPSG:4326,"",Cerro Matoso,",,Iron,balt",Laterite nickel,-75.58304,7.91786,POINT (-75.5830399999999969 7.9178600000000010),40,GEO,https://mrdata.usgs.gov/mrds205
https://minmod.isi.edu/resource/site__mrdata-usgs-gov-mrds__10039325,https://mrdata.usgs.gov/mrds,10039325,Canada,Quebec,EPSG:4326,"Erickson,1,Leslie",Holanna L Lake,"pper, elements,","Anorthosite conduit nickel- copper-PGE,Impact U-M intrusion nickel- copper-PGE,U-M layered intrusion nickel- copper-PGE",-69.74919,58.00009,POINT (-69.7491899999999987 58.0000899999999930),37,GEO,https://mrdata.usgs.gov/mrds2767
https://minmod.isi.edu/resource/site__mrdata-usgs-gov-mrds__10056263,https://mrdata.usgs.gov/mrds,10056263,United States,Montana,EPSG:4326,"",Nin,"Silver,balt, elements,,Gold,pper","Anorthosite conduit nickel- copper-PGE,U-M conduit nickel-copper- PGE,U-M intrusion nickel-copper- PGE,U-M layered intrusion PGE,U-M layered intrusion nickel- copper-PGE",-110.2233,45.48575,POINT (-110.2232999999999947 45.4857500000000030),522,GEO,https://mrdata.usgs.gov/mrds1469
https://minmod.isi.edu/resource/site__mrdata-usgs-gov-mrds__10106902,https://mrdata.usgs.gov/mrds,10106902,Canada,Manitoba,EPSG:4326,"Catlake Area,Bird River Claim Group,Maskwa Lake",Dumbarton Limited,",balt,pper,,","Anorthosite conduit nickel- copper-PGE,Impact U-M intrusion nickel- copper-PGE,U-M conduit nickel-copper- PGE,U-M intrusion nickel-copper- PGE,U-M layered intrusion nickel- copper-PGE",-95.48589,50.48306,POINT (-95.4858899999999977 50.4830600000000018),513,GEO,https://mrdata.usgs.gov/mrds1309
https://minmod.isi.edu/resource/site__mrdata-usgs-gov-mrds__10067838,https://mrdata.usgs.gov/mrds,10067838,United States,Nevada,EPSG:4326,"",ttonwood Canyon,",balt,pper","Vein cobalt ± Ni,Vein ± replacement nickel",-117.91318,39.99657,POINT (-117.9131799999999970 39.9965699999999913),608,GEO,https://mrdata.usgs.gov/mrds3141
https://minmod.isi.edu/resource/site__mrdata-usgs-gov-mrds__10079622,https://mrdata.usgs.gov/mrds,10079622,Brazil,Minas Gerais,EPSG:4326,"Livramento,Morro Do Corisco",Brazil,",Iron,",Laterite nickel,-44.36562,-22.0141,POINT (-44.3656200000000069 -22.0140999999999956),140,GEO,https://mrdata.usgs.gov/mrds1086
https://minmod.isi.edu/resource/site__mrdata-usgs-gov-mrds__10038814,https://mrdata.usgs.gov/mrds,10038814,South Africa,"",EPSG:4326,"Investments Co,K,O,A,Ltd,T",Atok,"balt,,pper,","U-M intrusion nickel-copper- PGE,U-M layered intrusion nickel- copper-PGE",29.8428,-24.31834,POINT (29.8427999999999969 -24.3183399999999956),389,GEO,https://mrdata.usgs.gov/mrds1002
https://minmod.isi.edu/resource/site__mrdata-usgs-gov-mrds__10039312,https://mrdata.usgs.gov/mrds,10039312,Canada,Quebec,EPSG:4326,"",Mogador,"elements,,pper","Anorthosite conduit nickel- copper-PGE,Arc U-M intru- sion nickel- copper-PGE,Ophiolite nickel-copper-PGE,U-M conduit nickel-copper- PGE",-77.69408,48.40832,POINT (-77.6940799999999854 48.4083200000000033),708,GEO,https://mrdata.usgs.gov/mrds1191
https://minmod.isi.edu/resource/site__mrdata-usgs-gov-mrds__10109569,https://mrdata.usgs.gov/mrds,10109569,Zimbabwe,"",EPSG:4326,"",Wedza,"Gold,,,,pper,",U-M layered intrusion PGE,29.8097,-20.28772,POINT (29.8096999999999994 -20.2877199999999966),423,GEO,https://mrdata.usgs.gov/mrds2228
https://minmod.isi.edu/resource/site__mrdata-usgs-gov-mrds__10067538,https://mrdata.usgs.gov/mrds,10067538,United States,Alaska,EPSG:4326,Mertie Lode,Admiralty Alaska Gold,",balt,pper","Arc U-M intru- sion nickel- copper-PGE,U-M conduit nickel-copper- PGE,U-M intrusion nickel-copper- PGE",-134.86035,58.23724,POINT (-134.8603499999999826 58.2372400000000070),308,GEO,https://mrdata.usgs.gov/mrds2902
https://minmod.isi.edu/resource/site__mrdata-usgs-gov-mrds__10068485,https://mrdata.usgs.gov/mrds,10068485,Chile,"",EPSG:4326,"",Topilla,"pper,,balt,,","Magnetite- dominant IOCG,Porphyry copper ± gold,Porphyry copper- molybdenum",-70.18288,-22.07755,POINT (-70.1828799999999973 -22.0775499999999951),67,GEO,https://mrdata.usgs.gov/mrds2475
https://minmod.isi.edu/resource/site__mrdata-usgs-gov-mrds__10039019,https://mrdata.usgs.gov/mrds,10039019,Mexico,Aguascalientes,EPSG:4326,Aguascalientes,(Facility) Aquascalientes,",,,Silver,,Gold,",Replacement gold-silver,-102.30041,21.85051,POINT (-102.3004099999999852 21.8505099999999963),7,GEO,https://mrdata.usgs.gov/mrds3051
https://minmod.isi.edu/resource/site__mrdata-usgs-gov-mrds__10147791,https://mrdata.usgs.gov/mrds,10147791,United States,Missouri,EPSG:4326,"",Unknown,",balt,pper,,","Irish-type sediment- hosted zinc- lead,Vein cobalt ± Ni",-90.14149,37.54227,POINT (-90.1414899999999903 37.5422700000000020),534,GEO,https://mrdata.usgs.gov/mrds875
https://minmod.isi.edu/resource/site__mrdata-usgs-gov-mrds__10105523,https://mrdata.usgs.gov/mrds,10105523,Canada,Quebec,EPSG:4326,"",Lac Edouard pper Canada,"pper,","Anorthosite conduit nickel- copper-PGE,Komatiite nickel-copper-PGE,Ophiolite nickel-copper-PGE",-72.26612,47.66663,POINT (-72.2661200000000008 47.6666299999999978),264,GEO,https://mrdata.usgs.gov/mrds33
https://minmod.isi.edu/resource/site__mrdata-usgs-gov-mrds__10066762,https://mrdata.usgs.gov/mrds,10066762,Australia,Western Australia,EPSG:4326,"",New Morning,"pper,","Impact U-M intrusion nickel- copper-PGE,Komatiite nickel-copper-PGE,Laterite nickel",119.63256,-32.4127,POINT (119.6325600000000122 -32.4127000000000010),259,GEO,https://mrdata.usgs.gov/mrds1188
https://minmod.isi.edu/resource/site__mrdata-usgs-gov-mrds__10047005,https://mrdata.usgs.gov/mrds,10047005,United States,Nevada,EPSG:4326,"",Thanksgiving,",pper","Breccia pipe copper,Impact U-M intrusion nickel- copper-PGE",-114.18637,36.60555,POINT (-114.1863699999999966 36.6055500000000009),468,GEO,https://mrdata.usgs.gov/mrds167
https://minmod.isi.edu/resource/site__mrdata-usgs-gov-mrds__10055388,https://mrdata.usgs.gov/mrds,10055388,United States,Washington,EPSG:4326,"",Goat Mountain,"","Black shale nickel ± Mo- PGE,Laterite nickel,Vein ± replacement nickel",-121.63318,48.93148,POINT (-121.6331799999999959 48.9314799999999934),465,GEO,https://mrdata.usgs.gov/mrds1212
https://minmod.isi.edu/resource/site__mrdata-usgs-gov-mrds__10096182,https://mrdata.usgs.gov/mrds,10096182,Peru,"",EPSG:4326,"",Rangra balt Peru,",balt",Laterite nickel,-75.41637,-11.41456,POINT (-75.4163700000000006 -11.4145599999999998),244,GEO,https://mrdata.usgs.gov/mrds331
https://minmod.isi.edu/resource/site__mrdata-usgs-gov-mrds__10034305,https://mrdata.usgs.gov/mrds,10034305,United States,California,EPSG:4326,"",Ventura,",pper","Impact U-M intrusion nickel- copper-PGE,U-M conduit nickel-copper- PGE",-118.78619,34.2014,POINT (-118.7861899999999906 34.2013999999999925),365,GEO,https://mrdata.usgs.gov/mrds272
https://minmod.isi.edu/resource/site__mrdata-usgs-gov-mrds__10066763,https://mrdata.usgs.gov/mrds,10066763,Australia,Western Australia,EPSG:4326,"",Flying Fox,",pper","Arc U-M intru- sion nickel- copper-PGE,Komatiite nickel-copper-PGE,Ophiolite nickel-copper-PGE,U-M conduit nickel-copper- PGE,Vein ± replacement nickel",119.63256,-32.29603,POINT (119.6325600000000122 -32.2960300000000018),259,GEO,https://mrdata.usgs.gov/mrds3025
https://minmod.isi.edu/resource/site__mrdata-usgs-gov-mrds__10305386,https://mrdata.usgs.gov/mrds,10305386,Russia,"",EPSG:4326,"",Severny,",pper",U-M conduit nickel-copper- PGE,30.50362,69.41522,POINT (30.5036199999999944 69.4152200000000192),256,GEO,https://mrdata.usgs.gov/mrds3054
https://minmod.isi.edu/resource/site__mrdata-usgs-gov-mrds__10197049,https://mrdata.usgs.gov/mrds,10197049,United States,Montana,EPSG:4326,"",Cattle Gulch Syncline,"Holmium,Dysprosium,Neodymium,Praseodymium,Lutetium,Yttrium,Lanthanum,Gadolinium,,Ytterbium,,Samarium,,Cerium,,Erbium,,Europium,Thulium,Terbium,",Phosphorite,-112.76339,45.6755,POINT (-112.7633900000000011 45.6754999999999995),741,GEO,https://mrdata.usgs.gov/mrds2244
https://minmod.isi.edu/resource/site__mrdata-usgs-gov-mrds__60000645,https://mrdata.usgs.gov/mrds,60000645,South Africa,"",EPSG:4326,Western Platinum Mine,Western Bushveld,"balt,,pper, elements","U-M intrusion nickel-copper- PGE,U-M layered intrusion PGE,U-M layered intrusion nickel- copper-PGE",27.50145,-25.69663,POINT (27.5014499999999948 -25.6966299999999954),428,GEO,https://mrdata.usgs.gov/mrds322
https://minmod.isi.edu/resource/site__mrdata-usgs-gov-mrds__10069271,https://mrdata.usgs.gov/mrds,10069271,Serbia,"",EPSG:4326,"",Kraljevo Yugoslavia,"",Vein ± replacement nickel,20.68522,43.73203,POINT (20.6852199999999975 43.7320299999999946),3390,GEO,https://mrdata.usgs.gov/mrds3189
https://minmod.isi.edu/resource/site__mrdata-usgs-gov-mrds__10070063,https://mrdata.usgs.gov/mrds,10070063,"","",EPSG:4326,"",Lushatsha Zaire,"","Laterite nickel,Vein ± replacement nickel",23.65636,-2.87441,POINT (23.6563599999999958 -2.8744099999999997),3545,GEO,https://mrdata.usgs.gov/mrds3344
https://minmod.isi.edu/resource/site__mrdata-usgs-gov-mrds__10123293,https://mrdata.usgs.gov/mrds,10123293,United States,Missouri,EPSG:4326,"",Annapolis,"pper,balt,,,","Irish-type sediment- hosted zinc- lead,Replacement zinc-lead",-90.56931,37.36477,POINT (-90.5693100000000015 37.3647700000000000),3546,GEO,https://mrdata.usgs.gov/mrds3345
https://minmod.isi.edu/resource/site__mrdata-usgs-gov-mrds__10034098,https://mrdata.usgs.gov/mrds,10034098,United States,California,EPSG:4326,Roosevelt,El Dorado,"pper,,,Silver,Gold","Bimodal felsic VMS,Bimodal-mafic VMS,Felsic-siliciclastic VMS,Mafic-siliciclastic VMS,Mafic-ultramafic VMS",-120.85046,38.84379,POINT (-120.8504599999999698 38.8437899999999985),681,GEO,https://mrdata.usgs.gov/mrds3082
https://minmod.isi.edu/resource/site__mrdata-usgs-gov-mrds__10056351,https://mrdata.usgs.gov/mrds,10056351,Canada,Manitoba,EPSG:4326,"",Farley,"Silver,Gold,,pper,balt","Anorthosite conduit nickel- copper-PGE,Impact U-M intrusion nickel- copper-PGE,Komatiite nickel-copper-PGE,U-M conduit nickel-copper- PGE,U-M intrusion nickel-copper- PGE,U-M layered intrusion nickel- copper-PGE",-101.05896,56.83618,POINT (-101.0589599999999990 56.8361799999999917),332,GEO,https://mrdata.usgs.gov/mrds42
https://minmod.isi.edu/resource/site__mrdata-usgs-gov-mrds__10095118,https://mrdata.usgs.gov/mrds,10095118,United States,Oregon,EPSG:4326,"",Reynold,"pper,,Gold",Iron silicate polymetallic,-123.75782,42.06204,POINT (-123.7578199999999669 42.0620400000000032),745,GEO,https://mrdata.usgs.gov/mrds1089
https://minmod.isi.edu/resource/site__mrdata-usgs-gov-mrds__10256110,https://mrdata.usgs.gov/mrds,10256110,China,"",EPSG:4326,"","",",,,Silver","Irish-type sediment- hosted zinc- lead,Non-sulfide zinc-lead ± Mn,Replacement zinc-lead",102.24974,26.66576,POINT (102.2497400000000027 26.6657599999999988),380,GEO,https://mrdata.usgs.gov/mrds647
https://minmod.isi.edu/resource/site__mrdata-usgs-gov-mrds__10107293,https://mrdata.usgs.gov/mrds,10107293,Canada,Ontario,EPSG:4326,"",Maybrun Canada,"pper,","Anorthosite conduit nickel- copper-PGE,Impact U-M intrusion nickel- copper-PGE,U-M intrusion nickel-copper- PGE",-93.50024,49.41667,POINT (-93.5002399999999909 49.4166700000000034),456,GEO,https://mrdata.usgs.gov/mrds2593
https://minmod.isi.edu/resource/site__mrdata-usgs-gov-mrds__10123897,https://mrdata.usgs.gov/mrds,10123897,United States,Montana,EPSG:4326,"",Hill Syncline,",Gadolinium,Praseodymium,Cerium,Holmium,Terbium, ,Yttrium,Thulium,,,Neodymium,,,Lanthanum,Dysprosium,Samarium,Europium,Ytterbium,Erbium,Lutetium","Apatite intrusion REE,Apatite- nepheline- titanite intrusion,Phosphorite",-112.9606,45.74709,POINT (-112.9605999999999852 45.7470900000000000),732,GEO,https://mrdata.usgs.gov/mrds2109
https://minmod.isi.edu/resource/site__mrdata-usgs-gov-mrds__10094433,https://mrdata.usgs.gov/mrds,10094433,Somalia,"",EPSG:4326,"",Daba Shabeli,"Iron,,,",U-M layered intrusion chromium,45.41775,10.15065,POINT (45.4177500000000052 10.1506499999999988),35,GEO,https://mrdata.usgs.gov/mrds2687
https://minmod.isi.edu/resource/site__mrdata-usgs-gov-mrds__10038877,https://mrdata.usgs.gov/mrds,10038877,Ghana,"",EPSG:4326,"",Unknown,"pper,Gold,Silver,,",Ophiolite nickel-copper-PGE,-1.49856,5.50119,POINT (-1.4985599999999999 5.5011900000000002),1,GEO,https://mrdata.usgs.gov/mrds875
https://minmod.isi.edu/resource/site__mrdata-usgs-gov-mrds__10067429,https://mrdata.usgs.gov/mrds,10067429,United States,Connecticut,EPSG:4326,"",Pool Sulfide,",Iron,","Anorthosite conduit nickel- copper-PGE,Arc U-M intru- sion nickel- copper-PGE",-73.25854,41.73899,POINT (-73.2585399999999964 41.7389900000000011),668,GEO,https://mrdata.usgs.gov/mrds164
https://minmod.isi.edu/resource/site__mrdata-usgs-gov-mrds__10176676,https://mrdata.usgs.gov/mrds,10176676,United States,Oregon,EPSG:4326,"",Black Rock,",,Silver",U-M layered intrusion chromium,-118.78545,44.33205,POINT (-118.7854499999999831 44.3320499999999953),544,GEO,https://mrdata.usgs.gov/mrds523
https://minmod.isi.edu/resource/site__mrdata-usgs-gov-mrds__10138458,https://mrdata.usgs.gov/mrds,10138458,United States,California,EPSG:4326,"",Elk Camp Laterite,",,Iron,balt",Laterite nickel,-123.87756,41.94232,POINT (-123.8775600000000026 41.9423199999999952),745,GEO,https://mrdata.usgs.gov/mrds1116
https://minmod.isi.edu/resource/site__mrdata-usgs-gov-mrds__10039232,https://mrdata.usgs.gov/mrds,10039232,South Africa,"",EPSG:4326,"",Merensky Reef,",, elements,,,Gold,pper,,,,,",U-M layered intrusion PGE,28.50142,-24.49668,POINT (28.5014199999999995 -24.4966799999999978),3382,GEO,https://mrdata.usgs.gov/mrds1807
https://minmod.isi.edu/resource/site__mrdata-usgs-gov-mrds__10096418,https://mrdata.usgs.gov/mrds,10096418,United States,Minnesota,EPSG:4326,"Inco South Lease,South Kawishiwi River West,Maturi Deep,Inco Test Shaft Site,Duval",Maturi Nokomis,"Gold,balt,,pper,,,","U-M intrusion nickel-copper- PGE,U-M layered intrusion nickel- copper-PGE",-91.75572,47.80138,POINT (-91.7557199999999966 47.8013800000000018),661,GEO,https://mrdata.usgs.gov/mrds1039
https://minmod.isi.edu/resource/site__mrdata-usgs-gov-mrds__10305195,https://mrdata.usgs.gov/mrds,10305195,South Africa,"",EPSG:4326,"Northam,Gold Field of South Africa Gfsa",Northam,",,,,,pper,Gold,,","U-M intrusion nickel-copper- PGE,U-M layered intrusion PGE,U-M layered intrusion nickel- copper-PGE",27.34454,-24.82167,POINT (27.3445399999999985 -24.8216700000000010),299,GEO,https://mrdata.usgs.gov/mrds1458
https://minmod.isi.edu/resource/site__mrdata-usgs-gov-mrds__10042345,https://mrdata.usgs.gov/mrds,10042345,United States,Montana,EPSG:4326,Riverside Prospect,Boulder River Riverside,"pper,Silver,,balt, elements,Gold","U-M intrusion nickel-copper- PGE,U-M layered intrusion PGE,U-M layered intrusion nickel- copper-PGE",-110.19969,45.47298,POINT (-110.1996900000000039 45.4729799999999997),522,GEO,https://mrdata.usgs.gov/mrds1354
https://minmod.isi.edu/resource/site__mrdata-usgs-gov-mrds__10069215,https://mrdata.usgs.gov/mrds,10069215,Australia,Western Australia,EPSG:4326,"",Wingellina Daisy Bates Field Australia,",balt",Laterite nickel,129.03239,-26.06304,POINT (129.0323899999999639 -26.0630399999999973),54,GEO,https://mrdata.usgs.gov/mrds1859
https://minmod.isi.edu/resource/site__mrdata-usgs-gov-mrds__10250601,https://mrdata.usgs.gov/mrds,10250601,United States,Pennsylvania,EPSG:4326,"",Phoenix,",,pper,balt,,,,,,Silver","",-75.52042,40.10081,POINT (-75.5204200000000014 40.1008100000000027),595,GEO,https://mrdata.usgs.gov/mrds108
https://minmod.isi.edu/resource/site__mrdata-usgs-gov-mrds__10152852,https://mrdata.usgs.gov/mrds,10152852,United States,Oregon,EPSG:4326,"Transmission Line,Cal-Ore Power Co",Cal Ore Power,"","Black shale nickel ± Mo- PGE,Laterite nickel,Ophiolite nickel-copper-PGE,Vein ± replacement nickel",-123.29865,42.41012,POINT (-123.2986499999999950 42.4101199999999992),602,GEO,https://mrdata.usgs.gov/mrds10
https://minmod.isi.edu/resource/site__mrdata-usgs-gov-mrds__10131656,https://mrdata.usgs.gov/mrds,10131656,United States,Washington,EPSG:4326,"",Powell,"","Anorthosite conduit nickel- copper-PGE,U-M conduit nickel-copper- PGE,Vein ± replacement nickel",-122.12704,48.55151,POINT (-122.1270399999999796 48.5515100000000004),688,GEO,https://mrdata.usgs.gov/mrds927
https://minmod.isi.edu/resource/site__mrdata-usgs-gov-mrds__10231637,https://mrdata.usgs.gov/mrds,10231637,Burkina Faso,"",EPSG:4326,"",Boromo Greenstone Bonga,"balt,Gold,",Laterite nickel,-2.74024,11.95072,POINT (-2.7402400000000000 11.9507200000000005),3,GEO,https://mrdata.usgs.gov/mrds1550
https://minmod.isi.edu/resource/site__mrdata-usgs-gov-mrds__10033280,https://mrdata.usgs.gov/mrds,10033280,United States,Oregon,EPSG:4326,"",Gray Butte,"balt,",Laterite nickel,-124.05645,42.47398,POINT (-124.0564499999999981 42.4739799999999903),733,GEO,https://mrdata.usgs.gov/mrds263
https://minmod.isi.edu/resource/site__mrdata-usgs-gov-mrds__10069248,https://mrdata.usgs.gov/mrds,10069248,Madagascar,"",EPSG:4326,"",Malagasy Republic Laterite Near Moramanga,"",Laterite nickel,48.16774,-18.99683,POINT (48.1677400000000020 -18.9968299999999957),28,GEO,https://mrdata.usgs.gov/mrds1305
https://minmod.isi.edu/resource/site__mrdata-usgs-gov-mrds__10077302,https://mrdata.usgs.gov/mrds,10077302,United States,California,EPSG:4326,"",Friday pper,",pper,balt",Vein cobalt ± Ni,-116.56001,33.04284,POINT (-116.5600100000000197 33.0428399999999982),472,GEO,https://mrdata.usgs.gov/mrds825
https://minmod.isi.edu/resource/site__mrdata-usgs-gov-mrds__10039342,https://mrdata.usgs.gov/mrds,10039342,Canada,Ontario,EPSG:4326,"",Kapkichi Lake,"pper,, elements","Anorthosite conduit nickel- copper-PGE,Impact U-M intrusion nickel- copper-PGE,Komatiite nickel-copper-PGE,Ophiolite nickel-copper-PGE",-90.33069,51.48335,POINT (-90.3306900000000041 51.4833499999999944),355,GEO,https://mrdata.usgs.gov/mrds186
https://minmod.isi.edu/resource/site__mrdata-usgs-gov-mrds__10039203,https://mrdata.usgs.gov/mrds,10039203,Australia,"",EPSG:4326,"",Venn,"Gold,,pper,,","Anorthosite conduit nickel- copper-PGE,Impact U-M intrusion nickel- copper-PGE,Komatiite nickel-copper-PGE",123.33251,-27.82957,POINT (123.3325099999999850 -27.8295700000000004),232,GEO,https://mrdata.usgs.gov/mrds65
https://minmod.isi.edu/resource/site__mrdata-usgs-gov-mrds__10255386,https://mrdata.usgs.gov/mrds,10255386,Canada,Ontario,EPSG:4326,"Creighton No,s 3 and 9 Mines",Creighton,", elements,Silver,,pper,Gold,,balt","Impact U-M intrusion nickel- copper-PGE,Komatiite nickel-copper-PGE,U-M conduit nickel-copper- PGE,U-M intrusion nickel-copper- PGE",-81.17898,46.46109,POINT (-81.1789799999999957 46.4610899999999916),750,GEO,https://mrdata.usgs.gov/mrds1498
https://minmod.isi.edu/resource/site__mrdata-usgs-gov-mrds__10002299,https://mrdata.usgs.gov/mrds,10002299,United States,Alaska,EPSG:4326,"",Red Mountain,",Gold, elements,,pper",Arc U-M intru- sion nickel- copper-PGE,-161.73268,58.93925,POINT (-161.7326800000000162 58.9392499999999870),4,GEO,https://mrdata.usgs.gov/mrds271
https://minmod.isi.edu/resource/site__mrdata-usgs-gov-mrds__10134066,https://mrdata.usgs.gov/mrds,10134066,China,"",EPSG:4326,"",Jin Chuan,"balt,pper,,Silver,Gold","Komatiite nickel-copper-PGE,U-M conduit nickel-copper- PGE,Vein ± replacement nickel",102.49969,38.99825,POINT (102.4996900000000011 38.9982499999999916),286,GEO,https://mrdata.usgs.gov/mrds2471
https://minmod.isi.edu/resource/site__mrdata-usgs-gov-mrds__10203572,https://mrdata.usgs.gov/mrds,10203572,United States,Virginia,EPSG:4326,"",Many Old,"balt,,pper","Anorthosite conduit nickel- copper-PGE,Vein cobalt ± Ni",-80.93311,36.73338,POINT (-80.9331099999999992 36.7333799999999897),731,GEO,https://mrdata.usgs.gov/mrds2507
https://minmod.isi.edu/resource/site__mrdata-usgs-gov-mrds__10105496,https://mrdata.usgs.gov/mrds,10105496,United States,Idaho,EPSG:4326,"Mona Group,Beliel Group,Cobalt Mine,Belielle",Haynes Stellite,"pper,balt,,",Vein cobalt ± Ni,-114.31534,45.1123,POINT (-114.3153399999999920 45.1122999999999905),466,GEO,https://mrdata.usgs.gov/mrds2721
https://minmod.isi.edu/resource/site__mrdata-usgs-gov-mrds__10065641,https://mrdata.usgs.gov/mrds,10065641,Chile,"",EPSG:4326,"",Rodriguez,"Silver,,pper,,",Volcanic-hosted copper,-70.7995,-36.0975,POINT (-70.7994999999999948 -36.0974999999999966),111,GEO,https://mrdata.usgs.gov/mrds1656
https://minmod.isi.edu/resource/site__mrdata-usgs-gov-mrds__10070518,https://mrdata.usgs.gov/mrds,10070518,United States,Idaho,EPSG:4326,"",Tom Jefferson,"balt,,pper,Gold",Vein cobalt ± Ni,-114.33493,45.12974,POINT (-114.3349299999999999 45.1297399999999982),466,GEO,https://mrdata.usgs.gov/mrds638
https://minmod.isi.edu/resource/site__mrdata-usgs-gov-mrds__10036903,https://mrdata.usgs.gov/mrds,10036903,United States,Washington,EPSG:4326,Lost,Grandview,",,pper,Gold,Silver",Arc U-M intru- sion nickel- copper-PGE,-120.86146,47.43676,POINT (-120.8614599999999797 47.4367599999999925),622,GEO,https://mrdata.usgs.gov/mrds1235
https://minmod.isi.edu/resource/site__mrdata-usgs-gov-mrds__10183210,https://mrdata.usgs.gov/mrds,10183210,Japan,Tokyo,EPSG:4326,"",(Facility) Shimura Kako,"","Black shale nickel ± Mo- PGE,Laterite nickel,Ophiolite nickel-copper-PGE,Vein ± replacement nickel",139.74871,35.66538,POINT (139.7487099999999884 35.6653799999999990),55,GEO,https://mrdata.usgs.gov/mrds151
https://minmod.isi.edu/resource/site__mrdata-usgs-gov-mrds__10039307,https://mrdata.usgs.gov/mrds,10039307,Canada,Quebec,EPSG:4326,Chaboullie,Horden,",pper, elements","Anorthosite conduit nickel- copper-PGE,Komatiite nickel-copper-PGE,Ophiolite nickel-copper-PGE",-77.74963,50.98334,POINT (-77.7496299999999962 50.9833399999999983),506,GEO,https://mrdata.usgs.gov/mrds163
https://minmod.isi.edu/resource/site__mrdata-usgs-gov-mrds__10079587,https://mrdata.usgs.gov/mrds,10079587,Finland,"",EPSG:4326,"",Polijaervi,",,","Arc U-M intru- sion nickel- copper-PGE,Nodular magnesite,U-M intrusion nickel-copper- PGE,Vein ± replacement nickel",28.46964,64.18178,POINT (28.4696399999999983 64.1817800000000034),96,GEO,https://mrdata.usgs.gov/mrds1517
https://minmod.isi.edu/resource/site__mrdata-usgs-gov-mrds__10038191,https://mrdata.usgs.gov/mrds,10038191,Denmark,"",EPSG:4326,"",Unknown,",pper,,balt","Anorthosite conduit nickel- copper-PGE,Impact U-M intrusion nickel- copper-PGE,U-M conduit nickel-copper- PGE",-51.90747,65.13843,POINT (-51.9074699999999964 65.1384299999999996),0,GEO,https://mrdata.usgs.gov/mrds875
https://minmod.isi.edu/resource/site__mrdata-usgs-gov-mrds__10079660,https://mrdata.usgs.gov/mrds,10079660,France,"",EPSG:4326,"",New Caledonia,"",Laterite nickel,165.88185,-21.44691,POINT (165.8818499999999858 -21.4469099999999990),386,GEO,https://mrdata.usgs.gov/mrds408
https://minmod.isi.edu/resource/site__mrdata-usgs-gov-mrds__10158039,https://mrdata.usgs.gov/mrds,10158039,Bolivia,"",EPSG:4326,"",Don Carlos,"","Vein cobalt ± Ni,Vein ± replacement nickel",-68.18951,-16.3077,POINT (-68.1895099999999985 -16.3077000000000005),203,GEO,https://mrdata.usgs.gov/mrds357
https://minmod.isi.edu/resource/site__mrdata-usgs-gov-mrds__10212691,https://mrdata.usgs.gov/mrds,10212691,United States,California,EPSG:4326,"Dutro,Murray,Dutra",Old Murry,",","Epithermal mercury,Epizonal orogenic mercury",-121.3213,35.81275,POINT (-121.3212999999999795 35.8127500000000012),585,GEO,https://mrdata.usgs.gov/mrds1440
https://minmod.isi.edu/resource/site__mrdata-usgs-gov-mrds__10084421,https://mrdata.usgs.gov/mrds,10084421,United States,Maine,EPSG:4326,Union Pyrrtotite,Harriman,",pper","Anorthosite conduit nickel- copper-PGE,Impact U-M intrusion nickel- copper-PGE,U-M conduit nickel-copper- PGE",-69.23719,44.20792,POINT (-69.2371899999999840 44.2079200000000014),639,GEO,https://mrdata.usgs.gov/mrds2389
https://minmod.isi.edu/resource/site__mrdata-usgs-gov-mrds__10293997,https://mrdata.usgs.gov/mrds,10293997,United States,Montana,EPSG:4326,Wolf Creek,Dillon,"","Black shale nickel ± Mo- PGE,Impact U-M intrusion nickel- copper-PGE,Vein ± replacement nickel",-112.42617,45.0807,POINT (-112.4261699999999848 45.0806999999999931),713,GEO,https://mrdata.usgs.gov/mrds275
https://minmod.isi.edu/resource/site__mrdata-usgs-gov-mrds__60000634,https://mrdata.usgs.gov/mrds,60000634,France,"",EPSG:4326,Hln1 Mine,Poum,"balt,",Laterite nickel,164.04855,-20.24695,POINT (164.0485499999999774 -20.2469499999999982),194,GEO,https://mrdata.usgs.gov/mrds408
https://minmod.isi.edu/resource/site__mrdata-usgs-gov-mrds__10079607,https://mrdata.usgs.gov/mrds,10079607,Finland,"",EPSG:4326,"",Hitura,"Silver,,balt,,,pper","Arc U-M intru- sion nickel- copper-PGE,Komatiite nickel-copper-PGE,U-M intrusion nickel-copper- PGE",25.05302,63.84852,POINT (25.0530200000000001 63.8485200000000006),219,GEO,https://mrdata.usgs.gov/mrds17
https://minmod.isi.edu/resource/site__mrdata-usgs-gov-mrds__10024469,https://mrdata.usgs.gov/mrds,10024469,Canada,Ontario,EPSG:4326,Frood-Stobie,Stobie,"elements,,,,Silver,Gold,pper,balt",Impact U-M intrusion nickel- copper-PGE,-80.99422,46.53832,POINT (-80.9942199999999843 46.5383199999999917),752,GEO,https://mrdata.usgs.gov/mrds1299
https://minmod.isi.edu/resource/site__mrdata-usgs-gov-mrds__10276299,https://mrdata.usgs.gov/mrds,10276299,United States,Washington,EPSG:4326,"",Red Butte,",balt,Gold","Oxidized intrusion- related gold,Vein cobalt ± Ni",-120.66287,47.44542,POINT (-120.6628699999999981 47.4454199999999915),622,GEO,https://mrdata.usgs.gov/mrds2735
https://minmod.isi.edu/resource/site__mrdata-usgs-gov-mrds__10096174,https://mrdata.usgs.gov/mrds,10096174,Australia,Western Australia,EPSG:4326,"",Weebo Australia,"","Black shale nickel ± Mo- PGE,Laterite nickel",121.4992,-30.7461,POINT (121.4991999999999877 -30.7461000000000020),656,GEO,https://mrdata.usgs.gov/mrds1361
https://minmod.isi.edu/resource/site__mrdata-usgs-gov-mrds__10158808,https://mrdata.usgs.gov/mrds,10158808,Philippines,"",EPSG:4326,Dinagat Deposit,Dinagat,"",Laterite nickel,125.68251,10.16731,POINT (125.6825099999999935 10.1673100000000005),350,GEO,https://mrdata.usgs.gov/mrds1707
https://minmod.isi.edu/resource/site__mrdata-usgs-gov-mrds__10180545,https://mrdata.usgs.gov/mrds,10180545,United States,Washington,EPSG:4326,"Irene,Howe Sound",Holden,",Gold,,,,Silver,,,pper","Bimodal felsic VMS,Bimodal-mafic VMS,Felsic-siliciclastic VMS,Mafic-siliciclastic VMS",-120.78,48.197,POINT (-120.7799999999999869 48.1970000000000027),577,GEO,https://mrdata.usgs.gov/mrds2333
https://minmod.isi.edu/resource/site__mrdata-usgs-gov-mrds__10039276,https://mrdata.usgs.gov/mrds,10039276,Papua New Guinea,"",EPSG:4326,"",Imudat River,",,Gold",Shoreline placer gold,149.44045,-10.23087,POINT (149.4404499999999985 -10.2308699999999995),193,GEO,https://mrdata.usgs.gov/mrds2811
https://minmod.isi.edu/resource/site__mrdata-usgs-gov-mrds__10067534,https://mrdata.usgs.gov/mrds,10067534,United States,Connecticut,EPSG:4326,"",No Name Given,",balt","Laterite nickel,Vein ± replacement nickel",-72.54952,41.56666,POINT (-72.5495199999999869 41.5666599999999988),553,GEO,https://mrdata.usgs.gov/mrds1024
https://minmod.isi.edu/resource/site__mrdata-usgs-gov-mrds__10190175,https://mrdata.usgs.gov/mrds,10190175,United States,California,EPSG:4326,"",Unnamed,"","Laterite nickel,Ophiolite nickel-copper-PGE,Vein ± replacement nickel",-122.87051,40.85735,POINT (-122.8705099999999675 40.8573499999999967),698,GEO,https://mrdata.usgs.gov/mrds227
https://minmod.isi.edu/resource/site__mrdata-usgs-gov-mrds__10279374,https://mrdata.usgs.gov/mrds,10279374,Canada,Ontario,EPSG:4326,No Alternate Names,Lockerby,"Silver,,,Gold,,balt, elements,pper","Impact U-M intrusion nickel- copper-PGE,U-M intrusion nickel-copper- PGE,U-M layered intrusion nickel- copper-PGE",-81.32539,46.42419,POINT (-81.3253899999999987 46.4241899999999958),751,GEO,https://mrdata.usgs.gov/mrds156
https://minmod.isi.edu/resource/site__mrdata-usgs-gov-mrds__10303385,https://mrdata.usgs.gov/mrds,10303385,Canada,Ontario,EPSG:4326,"",Juneau Lake,"pper,","Komatiite nickel-copper-PGE,Ophiolite nickel-copper-PGE,U-M conduit nickel-copper- PGE,U-M intrusion nickel-copper- PGE,U-M layered intrusion nickel- copper-PGE",-87.98333,50.36672,POINT (-87.9833299999999809 50.3667200000000008),485,GEO,https://mrdata.usgs.gov/mrds2155
https://minmod.isi.edu/resource/site__mrdata-usgs-gov-mrds__10038425,https://mrdata.usgs.gov/mrds,10038425,Canada,Ontario,EPSG:4326,Sudbury Iruptive,Sudbury,",,Gold,Silver,pper,",Impact U-M intrusion nickel- copper-PGE,-81.18311,46.66666,POINT (-81.1831099999999850 46.6666600000000003),3426,GEO,https://mrdata.usgs.gov/mrds3225
https://minmod.isi.edu/resource/site__mrdata-usgs-gov-mrds__10067827,https://mrdata.usgs.gov/mrds,10067827,United States,Tennessee,EPSG:4326,"",White Oak Mountain,",balt","Laterite nickel,Vein cobalt ± Ni",-84.98049,35.19872,POINT (-84.9804900000000032 35.1987200000000016),3446,GEO,https://mrdata.usgs.gov/mrds3245
https://minmod.isi.edu/resource/site__mrdata-usgs-gov-mrds__10163703,https://mrdata.usgs.gov/mrds,10163703,United States,California,EPSG:4326,"",Bell Valley,"","Black shale nickel ± Mo- PGE,Laterite nickel,Ophiolite nickel-copper-PGE",-123.30139,39.02047,POINT (-123.3013899999999836 39.0204700000000031),3516,GEO,https://mrdata.usgs.gov/mrds3315
https://minmod.isi.edu/resource/site__mrdata-usgs-gov-mrds__10181501,https://mrdata.usgs.gov/mrds,10181501,Canada,Ontario,EPSG:4326,Combined Innco Nickel,mbined Sudbury Oper,"","U-M conduit nickel-copper- PGE,U-M intrusion nickel-copper- PGE,U-M layered intrusion nickel- copper-PGE,Vein ± replacement nickel",-84.99991,50.00002,POINT (-84.9999099999999999 50.0000200000000063),549,GEO,https://mrdata.usgs.gov/mrds83
https://minmod.isi.edu/resource/site__mrdata-usgs-gov-mrds__10264936,https://mrdata.usgs.gov/mrds,10264936,United States,Nevada,EPSG:4326,"O,Carl Claims,Toole Nickel Property,Marysville Canyon Nickel Prospect,Victoria Claims,Wendy Claim,Veune Claim",Toole,"Gold,,","Impact U-M intrusion nickel- copper-PGE,Vein ± replacement nickel",-117.28783,39.01052,POINT (-117.2878299999999996 39.0105199999999925),651,GEO,https://mrdata.usgs.gov/mrds27
https://minmod.isi.edu/resource/site__mrdata-usgs-gov-mrds__10024527,https://mrdata.usgs.gov/mrds,10024527,Canada,Quebec,EPSG:4326,"",Donaldson,", elements,pper","Komatiite nickel-copper-PGE,Laterite nickel",-73.29095,61.67519,POINT (-73.2909499999999952 61.6751899999999935),82,GEO,https://mrdata.usgs.gov/mrds1897
https://minmod.isi.edu/resource/site__mrdata-usgs-gov-mrds__10079603,https://mrdata.usgs.gov/mrds,10079603,Australia,Queensland,EPSG:4326,"",Australia,",balt",Laterite nickel,149.83202,-22.8467,POINT (149.8320200000000000 -22.8466999999999949),100,GEO,https://mrdata.usgs.gov/mrds1850
https://minmod.isi.edu/resource/site__mrdata-usgs-gov-mrds__10079654,https://mrdata.usgs.gov/mrds,10079654,France,"",EPSG:4326,"",New Caledonia,"",Laterite nickel,164.69853,-21.2969,POINT (164.6985300000000052 -21.2968999999999973),165,GEO,https://mrdata.usgs.gov/mrds408
https://minmod.isi.edu/resource/site__mrdata-usgs-gov-mrds__10156710,https://mrdata.usgs.gov/mrds,10156710,United States,Wisconsin,EPSG:4326,Middle Inlet,Chippewa pper,"pper,Silver,Gold,","Anorthosite conduit nickel- copper-PGE,Impact U-M intrusion nickel- copper-PGE,U-M conduit nickel-copper- PGE,U-M layered intrusion nickel- copper-PGE",-91.88127,46.57719,POINT (-91.8812699999999865 46.5771900000000016),3511,GEO,https://mrdata.usgs.gov/mrds3310
https://minmod.isi.edu/resource/site__mrdata-usgs-gov-mrds__10245590,https://mrdata.usgs.gov/mrds,10245590,United States,Montana,EPSG:4326,"",Gird Syncline,"Samarium,,,Cerium,Gadolinium,,Yttrium, ,,Holmium,Europium,Lanthanum,Ytterbium,Erbium,Dysprosium,Praseodymium,,Neodymium,Thulium,Terbium,Lutetium","Apatite- nepheline- titanite intrusion,Phosphorite",-113.19262,46.49569,POINT (-113.1926200000000051 46.4956899999999962),582,GEO,https://mrdata.usgs.gov/mrds763
https://minmod.isi.edu/resource/site__mrdata-usgs-gov-mrds__10294550,https://mrdata.usgs.gov/mrds,10294550,United States,Montana,EPSG:4326,"",Gold Syncline,"Gadolinium,Terbium,Ytterbium,,,,Lanthanum,,Holmium,Dysprosium,Thulium,Erbium,Europium, ,Praseodymium,Neodymium,,Lutetium,Cerium,Yttrium,Samarium",Phosphorite,-113.08811,46.46019,POINT (-113.0881100000000004 46.4601899999999901),582,GEO,https://mrdata.usgs.gov/mrds1686
https://minmod.isi.edu/resource/site__mrdata-usgs-gov-mrds__10069296,https://mrdata.usgs.gov/mrds,10069296,United States,Utah,EPSG:4326,"Bingham Canyon Mine,Utah Copper",Bingham Open Pit,",,,Gold,,,,,,pper,,Silver","Low-fluorine porphyry molybdenum,Porphyry copper ± gold,Porphyry copper- molybdenum,Porphyry gold ± copper",-112.1458,40.52077,POINT (-112.1457999999999799 40.5207700000000060),59,GEO,https://mrdata.usgs.gov/mrds2380
https://minmod.isi.edu/resource/site__mrdata-usgs-gov-mrds__10176644,https://mrdata.usgs.gov/mrds,10176644,United States,Oregon,EPSG:4326,"Hanenkrat,Big Bertha,Morgan",Liberty Chrome South,",,,pper,",U-M layered intrusion chromium,-118.74275,44.32485,POINT (-118.7427499999999725 44.3248499999999979),544,GEO,https://mrdata.usgs.gov/mrds1643
https://minmod.isi.edu/resource/site__mrdata-usgs-gov-mrds__10082900,https://mrdata.usgs.gov/mrds,10082900,United States,Wisconsin,EPSG:4326,"",Unnamed Prosect Near Long Mil,"pper,",Anorthosite conduit nickel- copper-PGE,-91.0782,46.30943,POINT (-91.0782000000000096 46.3094299999999990),530,GEO,https://mrdata.usgs.gov/mrds32
https://minmod.isi.edu/resource/site__mrdata-usgs-gov-mrds__10067528,https://mrdata.usgs.gov/mrds,10067528,United States,Alaska,EPSG:4326,"",Hot Springs Dome,",balt",Vein cobalt ± Ni,-150.75805,65.026,POINT (-150.7580499999999972 65.0259999999999962),213,GEO,https://mrdata.usgs.gov/mrds442
https://minmod.isi.edu/resource/site__mrdata-usgs-gov-mrds__10004133,https://mrdata.usgs.gov/mrds,10004133,Argentina,La Rioja,EPSG:4326,"Reina Alejandria,Vetas,King Tut I Y Ii",King Tut,"balt,Silver,,Gold","Vein cobalt ± Ni,Vein five-element",-67.93557,-28.3919,POINT (-67.9355699999999842 -28.3918999999999961),69,GEO,https://mrdata.usgs.gov/mrds303
https://minmod.isi.edu/resource/site__mrdata-usgs-gov-mrds__10301413,https://mrdata.usgs.gov/mrds,10301413,United States,Washington,EPSG:4326,"",Alverson,",","Anorthosite conduit nickel- copper-PGE,Black shale nickel ± Mo- PGE,Vein ± replacement nickel",-122.51595,48.3745,POINT (-122.5159500000000037 48.3744999999999976),601,GEO,https://mrdata.usgs.gov/mrds1851
https://minmod.isi.edu/resource/site__mrdata-usgs-gov-mrds__10070072,https://mrdata.usgs.gov/mrds,10070072,Canada,Ontario,EPSG:4326,"",Levack West,",pper,Iron","Anorthosite conduit nickel- copper-PGE,Impact U-M intrusion nickel- copper-PGE,Komatiite nickel-copper-PGE,U-M intrusion nickel-copper- PGE,Vein ± replacement nickel",-81.39979,46.64999,POINT (-81.3997899999999959 46.6499899999999954),755,GEO,https://mrdata.usgs.gov/mrds1751
https://minmod.isi.edu/resource/site__mrdata-usgs-gov-mrds__10000886,https://mrdata.usgs.gov/mrds,10000886,United States,Alaska,EPSG:4326,"",Unnamed,",,pper","Arc U-M intru- sion nickel- copper-PGE,Ophiolite chromium,U-M conduit nickel-copper- PGE,U-M intrusion nickel-copper- PGE",-151.82783,62.71147,POINT (-151.8278299999999774 62.7114700000000056),248,GEO,https://mrdata.usgs.gov/mrds227
https://minmod.isi.edu/resource/site__mrdata-usgs-gov-mrds__10090748,https://mrdata.usgs.gov/mrds,10090748,Australia,"",EPSG:4326,"",Gould Airfield,"pper,,,","Albitite-hosted uranium,Iron oxide uranium",131.04076,-13.09725,POINT (131.0407600000000059 -13.0972499999999989),52,GEO,https://mrdata.usgs.gov/mrds2002
https://minmod.isi.edu/resource/site__mrdata-usgs-gov-mrds__10055939,https://mrdata.usgs.gov/mrds,10055939,United States,Washington,EPSG:4326,"Cle Elum River South Deposit,Balfour Guthrie,Cle Elum River North Deposit",Cle Elum River Iron,"Iron,,","Hematite- dominant IOA,Iron oxide poly- metallic,Iron silicate polymetallic",-121.05562,47.43121,POINT (-121.0556200000000047 47.4312100000000001),622,GEO,https://mrdata.usgs.gov/mrds1159
https://minmod.isi.edu/resource/site__mrdata-usgs-gov-mrds__10024461,https://mrdata.usgs.gov/mrds,10024461,Canada,Ontario,EPSG:4326,North Mine,Fecunis North,"elements,Gold,pper,Silver,,,balt,",Impact U-M intrusion nickel- copper-PGE,-81.3534,46.65693,POINT (-81.3533999999999935 46.6569300000000027),755,GEO,https://mrdata.usgs.gov/mrds948
https://minmod.isi.edu/resource/site__mrdata-usgs-gov-mrds__10204768,https://mrdata.usgs.gov/mrds,10204768,United States,Washington,EPSG:4326,"Iias Extension Lode,Iias",Blue Bonnet,"Silver,,pper,Gold","",-121.02588,47.45122,POINT (-121.0258799999999724 47.4512199999999993),622,GEO,https://mrdata.usgs.gov/mrds194
https://minmod.isi.edu/resource/site__mrdata-usgs-gov-mrds__10112532,https://mrdata.usgs.gov/mrds,10112532,United States,Alaska,EPSG:4326,"Wet,Wet Nos,Clyde Wetherell,1-6",Curtis Hills,",pper,","Bimodal-mafic VMS,Felsic-siliciclastic VMS,Mafic-ultramafic VMS",-136.1771,58.95393,POINT (-136.1770999999999958 58.9539299999999997),312,GEO,https://mrdata.usgs.gov/mrds658
https://minmod.isi.edu/resource/site__mrdata-usgs-gov-mrds__10274521,https://mrdata.usgs.gov/mrds,10274521,United States,Oregon,EPSG:4326,"Kalmiopsis Wilderness,Upper Chetco Laterites,Upper Chetco",Upper Chet Square Lake,"",Laterite nickel,-123.89366,42.16452,POINT (-123.8936599999999970 42.1645200000000031),745,GEO,https://mrdata.usgs.gov/mrds1382
https://minmod.isi.edu/resource/site__mrdata-usgs-gov-mrds__10209799,https://mrdata.usgs.gov/mrds,10209799,United States,Alaska,EPSG:4326,"Knott,Beaver,Norman B,William R,Vulcan,Rhode Island,Index,Manning",Sultana,"Iron,balt,pper,",Felsic-siliciclastic VMS,-132.6012,55.29193,POINT (-132.6012000000000057 55.2919299999999936),245,GEO,https://mrdata.usgs.gov/mrds1125
https://minmod.isi.edu/resource/site__mrdata-usgs-gov-mrds__10033781,https://mrdata.usgs.gov/mrds,10033781,United States,California,EPSG:4326,"",Meadow Valley,"",Laterite nickel,-121.07049,39.91321,POINT (-121.0704899999999782 39.9132099999999923),694,GEO,https://mrdata.usgs.gov/mrds131
https://minmod.isi.edu/resource/site__mrdata-usgs-gov-mrds__60000582,https://mrdata.usgs.gov/mrds,60000582,Canada,Manitoba,EPSG:4326,"",Soab North South,",pper, elements,balt,Gold,,,Silver","Anorthosite conduit nickel- copper-PGE,Impact U-M intrusion nickel- copper-PGE,Komatiite nickel-copper-PGE,U-M layered intrusion nickel- copper-PGE",-98.42189,55.21006,POINT (-98.4218899999999906 55.2100599999999986),617,GEO,https://mrdata.usgs.gov/mrds1419
https://minmod.isi.edu/resource/site__mrdata-usgs-gov-mrds__10069195,https://mrdata.usgs.gov/mrds,10069195,Greece,"",EPSG:4326,"",Hagios Joannia Larymna,"",Laterite nickel,23.08505,38.56551,POINT (23.0850499999999990 38.5655100000000033),282,GEO,https://mrdata.usgs.gov/mrds123
https://minmod.isi.edu/resource/site__mrdata-usgs-gov-mrds__10218476,https://mrdata.usgs.gov/mrds,10218476,United States,Maine,EPSG:4326,"",Lobikis,",,,,,","Greisen beryllium±Li,LCT pegmatite,NYF pegmatite,Simple pegmatite",-70.49772,44.48996,POINT (-70.4977200000000011 44.4899600000000035),554,GEO,https://mrdata.usgs.gov/mrds161
https://minmod.isi.edu/resource/site__mrdata-usgs-gov-mrds__10080129,https://mrdata.usgs.gov/mrds,10080129,United States,Virginia,EPSG:4326,"",Bergen Kemp,",pper,,balt","Vein cobalt ± Ni,Vein five-element",-80.52257,36.77924,POINT (-80.5225699999999875 36.7792399999999944),730,GEO,https://mrdata.usgs.gov/mrds2664
https://minmod.isi.edu/resource/site__mrdata-usgs-gov-mrds__10038190,https://mrdata.usgs.gov/mrds,10038190,Denmark,"",EPSG:4326,"",Eggers O,",Gold,,pper,Silver","Anorthosite conduit nickel- copper-PGE,Arc U-M intru- sion nickel- copper-PGE,U-M layered intrusion PGE",-43.6647,59.83317,POINT (-43.6646999999999963 59.8331700000000097),0,GEO,https://mrdata.usgs.gov/mrds500
https://minmod.isi.edu/resource/site__mrdata-usgs-gov-mrds__10204975,https://mrdata.usgs.gov/mrds,10204975,United States,Washington,EPSG:4326,"Cook,Stafford Creek,Reed",Stafford,"Iron,,",U-M layered intrusion chromium,-120.81538,47.39262,POINT (-120.8153800000000189 47.3926199999999938),622,GEO,https://mrdata.usgs.gov/mrds143
https://minmod.isi.edu/resource/site__mrdata-usgs-gov-mrds__10303518,https://mrdata.usgs.gov/mrds,10303518,Canada,Ontario,EPSG:4326,"",leman,",pper, elements,Gold,,balt,Silver,","Impact U-M intrusion nickel- copper-PGE,Komatiite nickel-copper-PGE,U-M intrusion nickel-copper- PGE,U-M layered intrusion nickel- copper-PGE",-81.33729,46.67499,POINT (-81.3372899999999817 46.6749899999999940),755,GEO,https://mrdata.usgs.gov/mrds0
https://minmod.isi.edu/resource/site__mrdata-usgs-gov-mrds__10070522,https://mrdata.usgs.gov/mrds,10070522,United States,Idaho,EPSG:4326,"",Ella,",pper,balt","Iron oxide poly- metallic,Vein cobalt ± Ni,Vein five-element",-114.35542,45.12668,POINT (-114.3554199999999810 45.1266800000000003),466,GEO,https://mrdata.usgs.gov/mrds2193
https://minmod.isi.edu/resource/site__mrdata-usgs-gov-mrds__10256366,https://mrdata.usgs.gov/mrds,10256366,South Africa,"",EPSG:4326,"Bafokeng,Impala PlatinumImpala,Bafokeng South,Wildebeestfontein",Impala,",balt,,,pper,,,,Gold,","U-M intrusion nickel-copper- PGE,U-M layered intrusion PGE,U-M layered intrusion nickel- copper-PGE",27.16815,-25.57994,POINT (27.1681500000000007 -25.5799400000000006),390,GEO,https://mrdata.usgs.gov/mrds10
https://minmod.isi.edu/resource/site__mrdata-usgs-gov-mrds__60000642,https://mrdata.usgs.gov/mrds,60000642,South Africa,"",EPSG:4326,"Union Platinum Mines,Impala Platinum Mines,Amandelbult Platinum Mines,Rustenburg Platinum Mines,Wildebeestfontein Platinum Mine,Western Platinum Mine,Bafokeng Platinum Mine",Merensky Reef,"pper,,balt, elements","U-M intrusion nickel-copper- PGE,U-M layered intrusion PGE,U-M layered intrusion nickel- copper-PGE",27.25145,-25.66334,POINT (27.2514499999999984 -25.6633400000000016),454,GEO,https://mrdata.usgs.gov/mrds1807
https://minmod.isi.edu/resource/site__mrdata-usgs-gov-mrds__10033292,https://mrdata.usgs.gov/mrds,10033292,United States,Oregon,EPSG:4326,McKee Group,Spokane Laterite,"",Laterite nickel,-123.9031,42.07288,POINT (-123.9030999999999949 42.0728799999999978),745,GEO,https://mrdata.usgs.gov/mrds2766
https://minmod.isi.edu/resource/site__mrdata-usgs-gov-mrds__10229260,https://mrdata.usgs.gov/mrds,10229260,United States,West Virginia,EPSG:4326,"",Traynham,",","Lacustrine manganese,Replacement manganese,Supergene manganese",-80.31648,37.58336,POINT (-80.3164799999999985 37.5833599999999919),618,GEO,https://mrdata.usgs.gov/mrds476
https://minmod.isi.edu/resource/site__mrdata-usgs-gov-mrds__10040157,https://mrdata.usgs.gov/mrds,10040157,United States,Washington,EPSG:4326,"",Shoshone,",","Epithermal mercury,Epizonal orogenic mercury",-120.7175,47.42593,POINT (-120.7174999999999869 47.4259299999999939),622,GEO,https://mrdata.usgs.gov/mrds566
https://minmod.isi.edu/resource/site__mrdata-usgs-gov-mrds__10095418,https://mrdata.usgs.gov/mrds,10095418,Australia,Western Australia,EPSG:4326,"",Ruth Well,"Gold,, elements","Impact U-M intrusion nickel- copper-PGE,Laterite nickel,Vein ± replacement nickel",116.99938,-20.69663,POINT (116.9993800000000164 -20.6966299999999954),163,GEO,https://mrdata.usgs.gov/mrds2748
https://minmod.isi.edu/resource/site__mrdata-usgs-gov-mrds__10069637,https://mrdata.usgs.gov/mrds,10069637,Philippines,"",EPSG:4326,"",Minulho,"",Vein ± replacement nickel,124.77005,11.09496,POINT (124.7700499999999977 11.0949600000000004),348,GEO,https://mrdata.usgs.gov/mrds896
https://minmod.isi.edu/resource/site__mrdata-usgs-gov-mrds__10038432,https://mrdata.usgs.gov/mrds,10038432,Canada,Ontario,EPSG:4326,"",Sultana,"Silver,Gold,pper,,","Anorthosite conduit nickel- copper-PGE,Impact U-M intrusion nickel- copper-PGE,U-M conduit nickel-copper- PGE,U-M intrusion nickel-copper- PGE,U-M layered intrusion nickel- copper-PGE",-81.52174,46.44082,POINT (-81.5217399999999799 46.4408200000000022),751,GEO,https://mrdata.usgs.gov/mrds1125
https://minmod.isi.edu/resource/site__mrdata-usgs-gov-mrds__10308640,https://mrdata.usgs.gov/mrds,10308640,United States,Alaska,EPSG:4326,"",Chakina River,",",Ophiolite chromium,-143.11446,61.11266,POINT (-143.1144600000000082 61.1126599999999840),372,GEO,https://mrdata.usgs.gov/mrds815
https://minmod.isi.edu/resource/site__mrdata-usgs-gov-mrds__10197438,https://mrdata.usgs.gov/mrds,10197438,United States,Montana,EPSG:4326,Chrome Lake,Rocky,",pper,balt","Anorthosite conduit nickel- copper-PGE,Impact U-M intrusion nickel- copper-PGE,U-M conduit nickel-copper- PGE,U-M intrusion nickel-copper- PGE,U-M layered intrusion nickel- copper-PGE",-109.79749,45.35022,POINT (-109.7974899999999963 45.3502199999999931),522,GEO,https://mrdata.usgs.gov/mrds1048
https://minmod.isi.edu/resource/site__mrdata-usgs-gov-mrds__60000591,https://mrdata.usgs.gov/mrds,60000591,South Africa,"",EPSG:4326,"Rustenburg Platinum Mines,Bushveld Complex,Impala Platinum Mines",Merensky Reef,",pper,balt, elements,Gold","U-M intrusion nickel-copper- PGE,U-M layered intrusion PGE,U-M layered intrusion nickel- copper-PGE",27.19785,-25.53724,POINT (27.1978499999999990 -25.5372399999999971),390,GEO,https://mrdata.usgs.gov/mrds1807
https://minmod.isi.edu/resource/site__mrdata-usgs-gov-mrds__10232147,https://mrdata.usgs.gov/mrds,10232147,France,"",EPSG:4326,Prony Mine,Prony,"balt,",Laterite nickel,166.81521,-22.31357,POINT (166.8152100000000075 -22.3135699999999950),294,GEO,https://mrdata.usgs.gov/mrds270
https://minmod.isi.edu/resource/site__mrdata-usgs-gov-mrds__10093769,https://mrdata.usgs.gov/mrds,10093769,United States,North Carolina,EPSG:4326,"",Unnamed,",,,","",-81.68872,35.89342,POINT (-81.6887200000000036 35.8934199999999990),619,GEO,https://mrdata.usgs.gov/mrds227
https://minmod.isi.edu/resource/site__mrdata-usgs-gov-mrds__10036655,https://mrdata.usgs.gov/mrds,10036655,United States,Oregon,EPSG:4326,"",Black Wonder,",,Silver","Arc U-M intru- sion nickel- copper-PGE,Vein ± replacement nickel",-118.91495,44.34985,POINT (-118.9149500000000188 44.3498500000000035),544,GEO,https://mrdata.usgs.gov/mrds2385
https://minmod.isi.edu/resource/site__mrdata-usgs-gov-mrds__10098404,https://mrdata.usgs.gov/mrds,10098404,China,"",EPSG:4326,"",Unnamed,",pper,,,,,,","Ophiolite chromium,U-M layered intrusion chromium",103.83393,36.56139,POINT (103.8339299999999952 36.5613900000000029),287,GEO,https://mrdata.usgs.gov/mrds227
https://minmod.isi.edu/resource/site__mrdata-usgs-gov-mrds__10039352,https://mrdata.usgs.gov/mrds,10039352,China,"",EPSG:4326,"",Szechwan,"pper,","Anorthosite conduit nickel- copper-PGE,Arc U-M intru- sion nickel- copper-PGE,Impact U-M intrusion nickel- copper-PGE,Ophiolite nickel-copper-PGE",103.99969,30.99875,POINT (103.9996899999999869 30.9987499999999976),379,GEO,https://mrdata.usgs.gov/mrds109
https://minmod.isi.edu/resource/site__mrdata-usgs-gov-mrds__10033308,https://mrdata.usgs.gov/mrds,10033308,United States,Oregon,EPSG:4326,"",Sherwood,"pper,Gold,,,balt,Silver","Arc U-M intru- sion nickel- copper-PGE,Laterite nickel,Ophiolite chromium,Vein ± replacement nickel",-117.92103,44.57819,POINT (-117.9210299999999876 44.5781899999999993),469,GEO,https://mrdata.usgs.gov/mrds218
https://minmod.isi.edu/resource/site__mrdata-usgs-gov-mrds__10158793,https://mrdata.usgs.gov/mrds,10158793,South Africa,"",EPSG:4326,"",(Facility) Western,", elements","Black shale nickel ± Mo- PGE,Komatiite nickel-copper-PGE,Ophiolite nickel-copper-PGE,U-M intrusion nickel-copper- PGE",27.48475,-25.67993,POINT (27.4847499999999982 -25.6799299999999988),428,GEO,https://mrdata.usgs.gov/mrds515
https://minmod.isi.edu/resource/site__mrdata-usgs-gov-mrds__10069371,https://mrdata.usgs.gov/mrds,10069371,Australia,Western Australia,EPSG:4326,"",Eureka Australia,"","Laterite nickel,Vein ± replacement nickel",121.53256,-26.56297,POINT (121.5325600000000179 -26.5629699999999964),293,GEO,https://mrdata.usgs.gov/mrds866
https://minmod.isi.edu/resource/site__mrdata-usgs-gov-mrds__10040180,https://mrdata.usgs.gov/mrds,10040180,United States,Washington,EPSG:4326,"",Wild Rose,"Silver,balt,,,Gold,pper,","Epithermal mercury,Epizonal orogenic mercury",-121.41056,47.96111,POINT (-121.4105600000000038 47.9611099999999908),686,GEO,https://mrdata.usgs.gov/mrds2247
https://minmod.isi.edu/resource/site__mrdata-usgs-gov-mrds__10283899,https://mrdata.usgs.gov/mrds,10283899,United States,Arizona,EPSG:4326,"Amethyst Vein,Julian Merger Mining",Monte Cristo,"Gold,Silver,pper,,Iron","Ferroan carbonate polymetallic,Iron oxide poly- metallic,Iron sulfide polymetallic",-112.57515,34.06426,POINT (-112.5751499999999936 34.0642599999999973),240,GEO,https://mrdata.usgs.gov/mrds2130
https://minmod.isi.edu/resource/site__mrdata-usgs-gov-mrds__10225170,https://mrdata.usgs.gov/mrds,10225170,United States,Oregon,EPSG:4326,"",Log Cabin,"Gold,,Silver","Epizonal orogenic gold,Hypozonal orogenic gold,Oxidized intrusion- related gold",-118.27994,44.38955,POINT (-118.2799399999999821 44.3895499999999927),435,GEO,https://mrdata.usgs.gov/mrds2530
https://minmod.isi.edu/resource/site__mrdata-usgs-gov-mrds__10308784,https://mrdata.usgs.gov/mrds,10308784,United States,Alaska,EPSG:4326,"Rick,s Nickel,s Prospect,Nail Allochthon,s Creek,Nail Ridge,Nickel Creek","","pper,Silver,,,,","Arc U-M intru- sion nickel- copper-PGE,Ophiolite nickel-copper-PGE",-144.87485,64.75472,POINT (-144.8748500000000092 64.7547199999999918),212,GEO,https://mrdata.usgs.gov/mrds647
https://minmod.isi.edu/resource/site__mrdata-usgs-gov-mrds__10039324,https://mrdata.usgs.gov/mrds,10039324,Canada,Saskatchewan,EPSG:4326,"",Reef Lake,", elements,pper",Anorthosite conduit nickel- copper-PGE,-104.15076,56.31672,POINT (-104.1507600000000053 56.3167199999999895),262,GEO,https://mrdata.usgs.gov/mrds984
https://minmod.isi.edu/resource/site__mrdata-usgs-gov-mrds__10024495,https://mrdata.usgs.gov/mrds,10024495,Australia,Queensland,EPSG:4326,Greenvale Nickel Mine,Greenvale,"balt,",Laterite nickel,144.98213,-18.91356,POINT (144.9821299999999837 -18.9135599999999968),191,GEO,https://mrdata.usgs.gov/mrds1080
https://minmod.isi.edu/resource/site__mrdata-usgs-gov-mrds__10039343,https://mrdata.usgs.gov/mrds,10039343,Canada,Manitoba,EPSG:4326,"",Disvery,"elements,","Anorthosite conduit nickel- copper-PGE,Black shale nickel ± Mo- PGE,Impact U-M intrusion nickel- copper-PGE,Komatiite nickel-copper-PGE,U-M intrusion nickel-copper- PGE",-98.62272,54.90144,POINT (-98.6227199999999868 54.9014400000000009),569,GEO,https://mrdata.usgs.gov/mrds1567
https://minmod.isi.edu/resource/site__mrdata-usgs-gov-mrds__10253175,https://mrdata.usgs.gov/mrds,10253175,United States,Washington,EPSG:4326,"",Teanaway,"Iron,,",U-M layered intrusion chromium,-120.89978,47.40622,POINT (-120.8997800000000069 47.4062199999999905),622,GEO,https://mrdata.usgs.gov/mrds172
https://minmod.isi.edu/resource/site__mrdata-usgs-gov-mrds__10043266,https://mrdata.usgs.gov/mrds,10043266,United States,Oregon,EPSG:4326,"Cobalt Blue,Pack Trail",Onion Mountain,"balt,,pper","Laterite nickel,Vein ± replacement nickel",-123.57783,42.46482,POINT (-123.5778299999999916 42.4648200000000031),690,GEO,https://mrdata.usgs.gov/mrds12
https://minmod.isi.edu/resource/site__mrdata-usgs-gov-mrds__10227583,https://mrdata.usgs.gov/mrds,10227583,United States,Washington,EPSG:4326,"",Sevenmile,",","Epizonal orogenic antimony ± gold,Orogenic silver-lead- zinc-copper- antimony,Vein five-element",-120.70559,48.16732,POINT (-120.7055900000000150 48.1673199999999966),577,GEO,https://mrdata.usgs.gov/mrds98
https://minmod.isi.edu/resource/site__mrdata-usgs-gov-mrds__10258403,https://mrdata.usgs.gov/mrds,10258403,United States,Alaska,EPSG:4326,Lituya Bay Copper,West Side of Crillon Inlet,"pper,","",-137.48542,58.6525,POINT (-137.4854200000000048 58.6525000000000034),438,GEO,https://mrdata.usgs.gov/mrds598
https://minmod.isi.edu/resource/site__mrdata-usgs-gov-mrds__10207952,https://mrdata.usgs.gov/mrds,10207952,Australia,Western Australia,EPSG:4326,"",Blair,"","Komatiite nickel-copper-PGE,Laterite nickel,Vein ± replacement nickel",121.4159,-31.07939,POINT (121.4159000000000077 -31.0793900000000001),3411,GEO,https://mrdata.usgs.gov/mrds3210
https://minmod.isi.edu/resource/site__mrdata-usgs-gov-mrds__10057337,https://mrdata.usgs.gov/mrds,10057337,Panama,"",EPSG:4326,"",Quebrada Guayabo,"","Laterite nickel,Vein ± replacement nickel",-80.73373,7.44149,POINT (-80.7337299999999800 7.4414899999999990),3524,GEO,https://mrdata.usgs.gov/mrds3323
https://minmod.isi.edu/resource/site__mrdata-usgs-gov-mrds__10097454,https://mrdata.usgs.gov/mrds,10097454,Finland,"",EPSG:4326,"",Finland,"","Anorthosite conduit nickel- copper-PGE,Black shale nickel ± Mo- PGE,Impact U-M intrusion nickel- copper-PGE",24.90277,61.33181,POINT (24.9027700000000003 61.3318099999999973),146,GEO,https://mrdata.usgs.gov/mrds1517
https://minmod.isi.edu/resource/site__mrdata-usgs-gov-mrds__10185652,https://mrdata.usgs.gov/mrds,10185652,United States,Alaska,EPSG:4326,Tenakee Nickel,Tenakee,"","Black shale nickel ± Mo- PGE,Ophiolite nickel-copper-PGE,U-M intrusion nickel-copper- PGE,Vein ± replacement nickel",-135.89924,57.99692,POINT (-135.8992399999999918 57.9969200000000029),247,GEO,https://mrdata.usgs.gov/mrds2161
https://minmod.isi.edu/resource/site__mrdata-usgs-gov-mrds__10152822,https://mrdata.usgs.gov/mrds,10152822,United States,Oregon,EPSG:4326,"",Buckskin Ridge,",,balt","Arc U-M intru- sion nickel- copper-PGE,Laterite nickel,Ophiolite chromium,Ophiolite nickel-copper-PGE",-123.83256,42.09762,POINT (-123.8325600000000009 42.0976199999999920),745,GEO,https://mrdata.usgs.gov/mrds1796
https://minmod.isi.edu/resource/site__mrdata-usgs-gov-mrds__10176863,https://mrdata.usgs.gov/mrds,10176863,United States,Oregon,EPSG:4326,"",Black Wonder,",,Silver","Black shale nickel ± Mo- PGE,U-M layered intrusion chromium",-118.91666,44.35095,POINT (-118.9166600000000074 44.3509499999999974),544,GEO,https://mrdata.usgs.gov/mrds2385
https://minmod.isi.edu/resource/site__mrdata-usgs-gov-mrds__60000615,https://mrdata.usgs.gov/mrds,60000615,Australia,Western Australia,EPSG:4326,Fisher Complex,Fisher (Kambalda ),",,Silver,,,pper,balt,Gold",Komatiite nickel-copper-PGE,121.65199,-31.19609,POINT (121.6519899999999978 -31.1960900000000017),727,GEO,https://mrdata.usgs.gov/mrds3134
https://minmod.isi.edu/resource/site__mrdata-usgs-gov-mrds__10158826,https://mrdata.usgs.gov/mrds,10158826,Burundi,"",EPSG:4326,"",Musongati,",pper,balt","Laterite nickel,Ophiolite nickel-copper-PGE",30.10128,-3.73139,POINT (30.1012800000000027 -3.7313899999999993),261,GEO,https://mrdata.usgs.gov/mrds280
https://minmod.isi.edu/resource/site__mrdata-usgs-gov-mrds__10067851,https://mrdata.usgs.gov/mrds,10067851,United States,Idaho,EPSG:4326,"",East Fork,"balt,",Vein cobalt ± Ni,-114.13653,45.47239,POINT (-114.1365299999999934 45.4723899999999901),466,GEO,https://mrdata.usgs.gov/mrds82
https://minmod.isi.edu/resource/site__mrdata-usgs-gov-mrds__10048512,https://mrdata.usgs.gov/mrds,10048512,United States,Montana,EPSG:4326,J-M Reef,Frog Pond West,",Gold,,,,pper","U-M layered intrusion PGE,U-M layered intrusion nickel- copper-PGE",-110.13913,45.45436,POINT (-110.1391299999999944 45.4543600000000012),522,GEO,https://mrdata.usgs.gov/mrds521
https://minmod.isi.edu/resource/site__mrdata-usgs-gov-mrds__10255735,https://mrdata.usgs.gov/mrds,10255735,Australia,Western Australia,EPSG:4326,"",Victor,"","Black shale nickel ± Mo- PGE,Komatiite nickel-copper-PGE,Vein ± replacement nickel",121.2325,-31.19608,POINT (121.2324999999999733 -31.1960800000000020),547,GEO,https://mrdata.usgs.gov/mrds573
https://minmod.isi.edu/resource/site__mrdata-usgs-gov-mrds__10225288,https://mrdata.usgs.gov/mrds,10225288,United States,Oregon,EPSG:4326,"Falls Creek Prospect,Fall Creek,United,United Copper-Gold Mines Company",Fall pper,",pper,Silver,Gold,","",-123.76866,42.29542,POINT (-123.7686600000000112 42.2954200000000000),747,GEO,https://mrdata.usgs.gov/mrds698
https://minmod.isi.edu/resource/site__mrdata-usgs-gov-mrds__10183379,https://mrdata.usgs.gov/mrds,10183379,Tanzania,Shinyanga,EPSG:4326,"",Ngasamo Prosp,",","Laterite magnesite,Nodular magnesite",34.83122,-2.3282,POINT (34.8312200000000018 -2.3281999999999994),104,GEO,https://mrdata.usgs.gov/mrds2559
https://minmod.isi.edu/resource/site__mrdata-usgs-gov-mrds__60001678,https://mrdata.usgs.gov/mrds,60001678,Cuba,"",EPSG:4326,"",Plateau Cajabanes balt,",balt",Laterite nickel,-83.99991,22.00054,POINT (-83.9999099999999856 22.0005399999999973),24,GEO,https://mrdata.usgs.gov/mrds697
https://minmod.isi.edu/resource/site__mrdata-usgs-gov-mrds__10048031,https://mrdata.usgs.gov/mrds,10048031,United States,Washington,EPSG:4326,"",Silver Star,",Silver,Gold,,,pper",Vein polymetallic,-122.28535,45.73009,POINT (-122.2853499999999798 45.7300899999999970),200,GEO,https://mrdata.usgs.gov/mrds661
https://minmod.isi.edu/resource/site__mrdata-usgs-gov-mrds__10196818,https://mrdata.usgs.gov/mrds,10196818,United States,Montana,EPSG:4326,"Jacquemin,Sourdough,Elkhorn (Golden Curry),Jacqueline",Golden Curry,",,Silver,pper,Iron,Gold",Skarn gold ± copper ± tungsten,-111.96147,46.2843,POINT (-111.9614699999999914 46.2842999999999947),3408,GEO,https://mrdata.usgs.gov/mrds3207
https://minmod.isi.edu/resource/site__mrdata-usgs-gov-mrds__10155960,https://mrdata.usgs.gov/mrds,10155960,United States,Washington,EPSG:4326,"",Hardcash,",","Arc U-M intru- sion nickel- copper-PGE,Ophiolite chromium,U-M layered intrusion chromium",-120.91368,47.45452,POINT (-120.9136800000000136 47.4545200000000023),622,GEO,https://mrdata.usgs.gov/mrds2269
https://minmod.isi.edu/resource/site__mrdata-usgs-gov-mrds__10206716,https://mrdata.usgs.gov/mrds,10206716,Russia,"",EPSG:4326,"",Kaula Kotselvaara,",pper","Komatiite nickel-copper-PGE,U-M conduit nickel-copper- PGE",30.23692,69.39853,POINT (30.2369199999999907 69.3985299999999938),255,GEO,https://mrdata.usgs.gov/mrds2005
https://minmod.isi.edu/resource/site__mrdata-usgs-gov-mrds__10069197,https://mrdata.usgs.gov/mrds,10069197,Philippines,"",EPSG:4326,"",Palawan Rio Tuba Laterite Philippines,"",Laterite nickel,117.3994,8.50075,POINT (117.3993999999999716 8.5007499999999983),189,GEO,https://mrdata.usgs.gov/mrds1792
https://minmod.isi.edu/resource/site__mrdata-usgs-gov-mrds__10200927,https://mrdata.usgs.gov/mrds,10200927,United States,Oregon,EPSG:4326,"",Doe Gap,"balt,,","Black shale nickel ± Mo- PGE,Laterite nickel,Ophiolite nickel-copper-PGE,Vein ± replacement nickel",-123.87146,42.13012,POINT (-123.8714599999999706 42.1301199999999980),745,GEO,https://mrdata.usgs.gov/mrds2707
https://minmod.isi.edu/resource/site__mrdata-usgs-gov-mrds__10231961,https://mrdata.usgs.gov/mrds,10231961,Zimbabwe,"",EPSG:4326,Hartley Complex,Hartley,",,,,balt,pper,,Gold,,","U-M intrusion nickel-copper- PGE,U-M layered intrusion PGE,U-M layered intrusion nickel- copper-PGE",30.45134,-18.07202,POINT (30.4513399999999947 -18.0720199999999949),3401,GEO,https://mrdata.usgs.gov/mrds3200
https://minmod.isi.edu/resource/site__mrdata-usgs-gov-mrds__10245782,https://mrdata.usgs.gov/mrds,10245782,United States,Montana,EPSG:4326,"",Dog Syncline,"Samarium,Europium,Lanthanum,,Gadolinium,Praseodymium,Cerium,Neodymium,,Thulium,,Holmium,, ,Lutetium,,Yttrium,Dysprosium,Terbium,Erbium,Ytterbium",Phosphorite,-112.43009,46.6527,POINT (-112.4300899999999928 46.6527000000000029),643,GEO,https://mrdata.usgs.gov/mrds2256
https://minmod.isi.edu/resource/site__mrdata-usgs-gov-mrds__10038974,https://mrdata.usgs.gov/mrds,10038974,Russia,"",EPSG:4326,"",Khatygyn Uele River,",, elements,pper,",Fluvial placer PGE,117.49332,72.2305,POINT (117.4933199999999687 72.2305000000000064),51,GEO,https://mrdata.usgs.gov/mrds2050
https://minmod.isi.edu/resource/site__mrdata-usgs-gov-mrds__10239213,https://mrdata.usgs.gov/mrds,10239213,United States,Colorado,EPSG:4326,"",Treasure Hill,"","Anorthosite conduit nickel- copper-PGE,Vein ± replacement nickel",-105.22279,40.74308,POINT (-105.2227899999999892 40.7430799999999991),499,GEO,https://mrdata.usgs.gov/mrds1069
https://minmod.isi.edu/resource/site__mrdata-usgs-gov-mrds__10024523,https://mrdata.usgs.gov/mrds,10024523,Philippines,Palawan,EPSG:4326,"Guintalungan Deposit,Mangigidong Deposit",Rio Tuba,"Iron,",Laterite nickel,117.40496,8.58685,POINT (117.4049599999999884 8.5868500000000001),189,GEO,https://mrdata.usgs.gov/mrds1225
https://minmod.isi.edu/resource/site__mrdata-usgs-gov-mrds__10024515,https://mrdata.usgs.gov/mrds,10024515,Finland,"",EPSG:4326,Stormi Mine,Vammala,"elements,,pper","Arc U-M intru- sion nickel- copper-PGE,Impact U-M intrusion nickel- copper-PGE,U-M intrusion nickel-copper- PGE,U-M layered intrusion nickel- copper-PGE",24.90277,61.33181,POINT (24.9027700000000003 61.3318099999999973),146,GEO,https://mrdata.usgs.gov/mrds889
https://minmod.isi.edu/resource/site__mrdata-usgs-gov-mrds__10073450,https://mrdata.usgs.gov/mrds,10073450,United States,Idaho,EPSG:4326,"Corrigan Mine,Tony Group",Page,",balt,,pper,Gold,,,Silver","Orogenic silver-lead- zinc-copper- antimony,Siliciclastic-mafic zinc-lead,Vein polymetallic",-116.20163,47.52547,POINT (-116.2016299999999802 47.5254699999999985),3463,GEO,https://mrdata.usgs.gov/mrds3262
https://minmod.isi.edu/resource/site__mrdata-usgs-gov-mrds__10097131,https://mrdata.usgs.gov/mrds,10097131,United States,California,EPSG:4326,"",Cal,"balt,, elements,",Laterite nickel,-123.98005,41.92788,POINT (-123.9800500000000198 41.9278800000000018),745,GEO,https://mrdata.usgs.gov/mrds2356
https://minmod.isi.edu/resource/site__mrdata-usgs-gov-mrds__10250521,https://mrdata.usgs.gov/mrds,10250521,United States,Oregon,EPSG:4326,"C Land,O",O,"","Black shale nickel ± Mo- PGE,Laterite nickel,Ophiolite nickel-copper-PGE,Vein ± replacement nickel",-122.96787,43.90061,POINT (-122.9678700000000049 43.9006099999999932),467,GEO,https://mrdata.usgs.gov/mrds601
https://minmod.isi.edu/resource/site__mrdata-usgs-gov-mrds__10039333,https://mrdata.usgs.gov/mrds,10039333,Canada,Saskatchewan,EPSG:4326,"",Axis Lake,"pper, elements,,balt","Anorthosite conduit nickel- copper-PGE,Impact U-M intrusion nickel- copper-PGE",-105.99813,59.34649,POINT (-105.9981299999999891 59.3464899999999957),263,GEO,https://mrdata.usgs.gov/mrds897
https://minmod.isi.edu/resource/site__mrdata-usgs-gov-mrds__10024594,https://mrdata.usgs.gov/mrds,10024594,Canada,Manitoba,EPSG:4326,"",Pipe No,"Silver,,pper,,balt, elements,Gold,","Arc U-M intru- sion nickel- copper-PGE,U-M intrusion nickel-copper- PGE,U-M layered intrusion nickel- copper-PGE",-98.15048,55.50006,POINT (-98.1504800000000017 55.5000599999999977),614,GEO,https://mrdata.usgs.gov/mrds876
https://minmod.isi.edu/resource/site__mrdata-usgs-gov-mrds__10039161,https://mrdata.usgs.gov/mrds,10039161,Russia,"",EPSG:4326,Khanarskaya,Khanar River Intrusion,",,Gold,,balt,pper,","Impact U-M intrusion nickel- copper-PGE,U-M conduit nickel-copper- PGE",97.52494,70.1681,POINT (97.5249400000000009 70.1680999999999813),180,GEO,https://mrdata.usgs.gov/mrds778
https://minmod.isi.edu/resource/site__mrdata-usgs-gov-mrds__60001611,https://mrdata.usgs.gov/mrds,60001611,Peru,Cusco,EPSG:4326,"",Vilcambamba,"Silver,pper,balt,,,,","Ferroan carbonate polymetallic,Non-sulfide zinc-lead ± Mn,Replacement zinc-lead",-73.01634,-13.12282,POINT (-73.0163399999999996 -13.1228199999999990),336,GEO,https://mrdata.usgs.gov/mrds992
https://minmod.isi.edu/resource/site__mrdata-usgs-gov-mrds__10176823,https://mrdata.usgs.gov/mrds,10176823,United States,Oregon,EPSG:4326,"Cedar Creek,Smith River Laterite",Smith River,"balt,,Iron,",Laterite nickel,-123.97786,42.01452,POINT (-123.9778600000000068 42.0145199999999903),745,GEO,https://mrdata.usgs.gov/mrds883
https://minmod.isi.edu/resource/site__mrdata-usgs-gov-mrds__10067863,https://mrdata.usgs.gov/mrds,10067863,United States,Georgia,EPSG:4326,"",Gibson,",balt,","Replacement manganese,Residual clay,Sedimentary manganese,Supergene manganese",-85.26664,34.11683,POINT (-85.2666399999999953 34.1168299999999931),574,GEO,https://mrdata.usgs.gov/mrds1649
https://minmod.isi.edu/resource/site__mrdata-usgs-gov-mrds__10147660,https://mrdata.usgs.gov/mrds,10147660,United States,Missouri,EPSG:4326,"",Brushy Division,",pper,Silver,,,,balt","Kipushi-type sediment- hosted copper- zinc-lead,MVT zinc-lead,Replacement zinc-lead",-91.12903,37.53837,POINT (-91.1290300000000002 37.5383700000000005),490,GEO,https://mrdata.usgs.gov/mrds2004
https://minmod.isi.edu/resource/site__mrdata-usgs-gov-mrds__10233763,https://mrdata.usgs.gov/mrds,10233763,United States,Alaska,EPSG:4326,Little Shotgun Creek Lode,Partin Chrome,",,,","Ophiolite chromium,U-M layered intrusion chromium",-149.91252,63.04067,POINT (-149.9125199999999722 63.0406699999999844),410,GEO,https://mrdata.usgs.gov/mrds2402
https://minmod.isi.edu/resource/site__mrdata-usgs-gov-mrds__10104012,https://mrdata.usgs.gov/mrds,10104012,United States,Nevada,EPSG:4326,"Holmes,Argentum  Mine,Northern Belle",Argentum,",,,Gold,,,,,,pper,Iron,Silver",Supergene silver,-118.08372,38.15687,POINT (-118.0837199999999854 38.1568699999999978),607,GEO,https://mrdata.usgs.gov/mrds1027
https://minmod.isi.edu/resource/site__mrdata-usgs-gov-mrds__10280272,https://mrdata.usgs.gov/mrds,10280272,Zimbabwe,"",EPSG:4326,No Alternate Names,Musengezi,"pper,,,","U-M intrusion nickel-copper- PGE,U-M layered intrusion PGE,U-M layered intrusion nickel- copper-PGE",30.90132,-16.49711,POINT (30.9013199999999948 -16.4971099999999993),3406,GEO,https://mrdata.usgs.gov/mrds3205
