ms_uri,source_id,record_id,country,state_or_province,crs,other_names,site_name,commodity,deposit_type,longitude,latitude,location,GroupID_location,link_method,GroupID_text
https://minmod.isi.edu/resource/site__mrdata-usgs-gov-mrds__10016492,https://mrdata.usgs.gov/mrds,10016492,United States,Colorado,EPSG:4326,"",Temple,"Thulium,Erbium,Holmium,Ytterbium,Samarium,Lanthanum,Lutetium,Cerium,Yttrium,Neoymium,Praseodymium,Dysprosium,Europium,Gadolinium,Terbium","Apatite intrusion REE,Ion adsorption REE",-106.7462,40.79219,POINT (-106.7462000000000018 40.7921899999999980),205,GEO,https://mrdata.usgs.gov/mrds408
https://minmod.isi.edu/resource/site__mrdata-usgs-gov-mrds__10217068,https://mrdata.usgs.gov/mrds,10217068,United States,Idaho,EPSG:4326,"",1,"Terbium,,Lutetium,Lanthanum,Yttrium,Holmium,Samarium,Erbium,Zirnium,Dysprosium,Cerium,Thulium,Ytterbium,Gadolinium,Europium,Praseodymium,Iron,Neoymium","Fluvial placer REE,Fluvial placer garnet",-113.63866,42.00931,POINT (-113.6386600000000016 42.0093099999999993),196,GEO,https://mrdata.usgs.gov/mrds438
https://minmod.isi.edu/resource/site__mrdata-usgs-gov-mrds__60000784,https://mrdata.usgs.gov/mrds,60000784,Australia,New South Wales,EPSG:4326,"Kataway Bay,Myall Lake,Smith Lake",Bridge Hill Ridge,"Terbium,Lutetium,Ytterbium,Holmium,Neoymium,Cerium,Yttrium,,Zirnium,Gadolinium,Erbium,Lanthanum,Praseodymium,Dysprosium,Europium,Thulium,Samarium,","Fluvial placer REE,Heavy mineral sands,Paleoplacer heavy mineral sands",152.46523,-32.41303,POINT (152.4652299999999912 -32.4130299999999991),81,GEO,https://mrdata.usgs.gov/mrds640
https://minmod.isi.edu/resource/site__mrdata-usgs-gov-mrds__10018145,https://mrdata.usgs.gov/mrds,10018145,United States,Colorado,EPSG:4326,"",Unidentified Monazite,"Europium,Neoymium,Cerium,Terbium,Ytterbium,Holmium,Dysprosium,,Yttrium,Samarium,Praseodymium,Lanthanum,Lutetium,Thulium,Erbium,Gadolinium","Abyssal pegmatite REE,Carbonatite niobium,Peralkaline igneous HFSE- REE",-106.04782,38.86556,POINT (-106.0478200000000015 38.8655600000000021),232,GEO,https://mrdata.usgs.gov/mrds1111
https://minmod.isi.edu/resource/site__mrdata-usgs-gov-mrds__10101671,https://mrdata.usgs.gov/mrds,10101671,United States,Montana,EPSG:4326,Centennial Mountain District,Centennial Phosphate,"Praseodymium,Erbium, ,,Yttrium,Terbium,Dysprosium,Thulium,,Neoymium,,Cerium,,Holmium,Lanthanum,Samarium,,Europium,Ytterbium,Gadolinium,Lutetium",Phosphorite,-111.68917,44.56658,POINT (-111.6891700000000043 44.5665800000000019),264,GEO,https://mrdata.usgs.gov/mrds1172
https://minmod.isi.edu/resource/site__mrdata-usgs-gov-mrds__10070928,https://mrdata.usgs.gov/mrds,10070928,United States,Idaho,EPSG:4326,"",Biggs Ranch Placer,"Gadolinium,Cerium,Dysprosium,Ytterbium,,Europium,Yttrium,Praseodymium,Erbium,Samarium,Thulium,Lutetium,Neoymium,Gold,Lanthanum,Terbium,Holmium",Fluvial placer REE,-114.79734,44.71408,POINT (-114.7973400000000055 44.7140800000000027),285,GEO,https://mrdata.usgs.gov/mrds1472
https://minmod.isi.edu/resource/site__mrdata-usgs-gov-mrds__10079631,https://mrdata.usgs.gov/mrds,10079631,Australia,Western Australia,EPSG:4326,"",Australia,"Thulium,Neoymium,Lutetium,Praseodymium,,Gadolinium,Europium,, ,Cerium,Dysprosium,Ytterbium,Zirnium,Yttrium,Lanthanum,,Samarium,Terbium,Erbium,Holmium","Heavy mineral sands,Paleoplacer heavy mineral sands",115.64933,-33.31265,POINT (115.6493300000000062 -33.3126499999999979),67,GEO,https://mrdata.usgs.gov/mrds1060
https://minmod.isi.edu/resource/site__mrdata-usgs-gov-mrds__10071245,https://mrdata.usgs.gov/mrds,10071245,United States,Idaho,EPSG:4326,"",Burnt Bar Placer,"Holmium,Neoymium,Zirnium,Europium,Lanthanum,Thulium,Erbium,Lutetium,Yttrium,Gold,Iron,Praseodymium,Dysprosium,Samarium,Terbium,Gadolinium,Ytterbium,,Cerium","Fluvial placer REE,Fluvial placer garnet,Fluvial placer niobium-tantalum,Paleoplacer heavy mineral sands",-114.59532,44.25159,POINT (-114.5953200000000010 44.2515900000000002),311,GEO,https://mrdata.usgs.gov/mrds334
https://minmod.isi.edu/resource/site__mrdata-usgs-gov-mrds__10094385,https://mrdata.usgs.gov/mrds,10094385,United States,Idaho,EPSG:4326,"",Big Placer,"Lutetium,Erbium,Lanthanum,Gadolinium,Holmium,Cerium,Yttrium,Samarium,Terbium,Thulium,Europium,Dysprosium,Neoymium,Ytterbium,Praseodymium",Fluvial placer REE,-115.86177,44.59767,POINT (-115.8617700000000070 44.5976700000000008),302,GEO,https://mrdata.usgs.gov/mrds1042
https://minmod.isi.edu/resource/site__mrdata-usgs-gov-mrds__10024892,https://mrdata.usgs.gov/mrds,10024892,Australia,New South Wales,EPSG:4326,"Tomago Sand Pits,Tomago Sandbeds",Tomago,"Neoymium,Erbium,Lutetium,Dysprosium,,Thulium,Samarium,Praseodymium,Europium,,Ytterbium,Holmium,,Yttrium,Lanthanum,, ,Gadolinium,Cerium,Zirnium,Terbium","Heavy mineral sands,Paleoplacer heavy mineral sands",151.71521,-32.79631,POINT (151.7152100000000132 -32.7963099999999983),96,GEO,https://mrdata.usgs.gov/mrds637
https://minmod.isi.edu/resource/site__mrdata-usgs-gov-mrds__10085028,https://mrdata.usgs.gov/mrds,10085028,India,Kerala,EPSG:4326,Quilon,Chavara,"Neoymium,Dysprosium,Samarium,Holmium,Gadolinium,,Lutetium,Thulium,Yttrium,Ytterbium,Zirnium,, ,Terbium,Erbium,Praseodymium,,Cerium,Lanthanum,Europium","Heavy mineral sands,Paleoplacer heavy mineral sands",76.50041,9.16735,POINT (76.5004100000000022 9.1673500000000008),79,GEO,https://mrdata.usgs.gov/mrds29
https://minmod.isi.edu/resource/site__mrdata-usgs-gov-mrds__10183223,https://mrdata.usgs.gov/mrds,10183223,Australia,Western Australia,EPSG:4326,"Eneabba,Adamson Deposit,Eneabba South,Eneabba North,Eneabba West",Eneabba,"Zirnium,Dysprosium,,Yttrium,Ytterbium,Cerium,Lutetium,Thulium,Erbium,Europium,Terbium,Gadolinium,Neoymium,Holmium,Lanthanum,Samarium,Praseodymium","Heavy mineral sands,Paleoplacer heavy mineral sands",115.41606,-29.77941,POINT (115.4160600000000017 -29.7794099999999986),50,GEO,https://mrdata.usgs.gov/mrds75
https://minmod.isi.edu/resource/site__mrdata-usgs-gov-mrds__60000261,https://mrdata.usgs.gov/mrds,60000261,United States,Arizona,EPSG:4326,"",Signal Arizona,"Praseodymium,Holmium,Cerium,Lanthanum,Dysprosium,Erbium,Yttrium,Samarium,Thulium,,Lutetium,Neoymium,Gadolinium,Ytterbium,Europium,Terbium","Abyssal pegmatite REE,LCT pegmatite,NYF pegmatite",-113.55078,34.53334,POINT (-113.5507800000000032 34.5333400000000026),200,GEO,https://mrdata.usgs.gov/mrds528
https://minmod.isi.edu/resource/site__mrdata-usgs-gov-mrds__10001806,https://mrdata.usgs.gov/mrds,10001806,United States,Alaska,EPSG:4326,"",Unnamed (tributary to Clear ),"Gadolinium,Lanthanum,Holmium,Praseodymium,Terbium,Lutetium,Dysprosium,Cerium,Erbium,Samarium,Ytterbium,Thulium,Europium,Yttrium,,Neoymium","Apatite- nepheline- titanite intrusion,Peralkaline igneous HFSE- REE",-162.32716,64.89825,POINT (-162.3271599999999921 64.8982500000000044),116,GEO,https://mrdata.usgs.gov/mrds628
https://minmod.isi.edu/resource/site__mrdata-usgs-gov-mrds__10038142,https://mrdata.usgs.gov/mrds,10038142,United States,Montana,EPSG:4326,"Maywood Placer,Summit Placer,Montana Tonapah",Princeton Gulch Placer,"Gadolinium,Erbium,Thulium,Holmium,Dysprosium,Samarium,Europium,,Terbium,,Gold,Lanthanum,Lutetium,Yttrium,Praseodymium,, ,Cerium,Neoymium,Ytterbium,",Fluvial placer gold,-113.16452,46.42128,POINT (-113.1645199999999960 46.4212800000000030),273,GEO,https://mrdata.usgs.gov/mrds766
https://minmod.isi.edu/resource/site__mrdata-usgs-gov-mrds__10304272,https://mrdata.usgs.gov/mrds,10304272,Brazil,Rio de Janeiro,EPSG:4326,"",Sao Joao Da Barro Buena,"Cerium,Holmium,Ytterbium,,Erbium,Lanthanum,Yttrium,Lutetium,Samarium,Europium,Terbium,Gadolinium,Thulium,Dysprosium,Praseodymium,Zirnium,Neoymium","Fluvial placer REE,Heavy mineral sands,Paleoplacer heavy mineral sands",-41.08219,-21.51413,POINT (-41.0821899999999971 -21.5141300000000015),21,GEO,https://mrdata.usgs.gov/mrds187
https://minmod.isi.edu/resource/site__mrdata-usgs-gov-mrds__60000838,https://mrdata.usgs.gov/mrds,60000838,Australia,Western Australia,EPSG:4326,Jurien Prospect,Jurien Bay,"Yttrium,Praseodymium,,Europium,Lanthanum,Lutetium,Erbium,Cerium,Thulium,Neoymium,,,Holmium,Dysprosium,Ytterbium,Samarium,Gadolinium,Zirnium,Terbium","Heavy mineral sands,Paleoplacer heavy mineral sands",115.16607,-30.31279,POINT (115.1660700000000048 -30.3127899999999997),52,GEO,https://mrdata.usgs.gov/mrds360
https://minmod.isi.edu/resource/site__mrdata-usgs-gov-mrds__10289725,https://mrdata.usgs.gov/mrds,10289725,United States,Idaho,EPSG:4326,"North Henry,South Henry,3,Central Henry,1-7,North Wooley Range,Area B,Henry NE,Area A,Lanes Creek NW,Lower Valley,2-6,4,2",Henry Phosphate,"Europium,Gadolinium,Lanthanum,Samarium,,Thulium, ,Praseodymium,Neoymium,Terbium,Ytterbium,,Cerium,Dysprosium,Erbium,Holmium,Yttrium,,Lutetium",Phosphorite,-111.47322,42.87621,POINT (-111.4732199999999978 42.8762100000000004),225,GEO,https://mrdata.usgs.gov/mrds1356
https://minmod.isi.edu/resource/site__mrdata-usgs-gov-mrds__10000239,https://mrdata.usgs.gov/mrds,10000239,United States,Alaska,EPSG:4326,"",Ross Adams,",Thulium,Holmium,Dysprosium,Neoymium,,Lutetium,Samarium,Europium,Praseodymium,Yttrium,Ytterbium,Terbium,Cerium,, ,,Lanthanum,Erbium,Gadolinium","Peralkaline igneous HFSE- REE,Skarn uranium- REE",-132.14066,54.91084,POINT (-132.1406599999999969 54.9108400000000003),60,GEO,https://mrdata.usgs.gov/mrds469
https://minmod.isi.edu/resource/site__mrdata-usgs-gov-mrds__10266060,https://mrdata.usgs.gov/mrds,10266060,United States,Idaho,EPSG:4326,"",Red River Placers,"Europium,Neoymium,Samarium,Gadolinium,Thulium,Dysprosium,Lutetium,Lanthanum,Erbium,Cerium,Yttrium,Silver,Praseodymium,Terbium,Zirnium,Gold,Holmium,Ytterbium",Fluvial placer REE,-115.37657,45.71737,POINT (-115.3765700000000010 45.7173700000000025),279,GEO,https://mrdata.usgs.gov/mrds5
https://minmod.isi.edu/resource/site__mrdata-usgs-gov-mrds__10173261,https://mrdata.usgs.gov/mrds,10173261,United States,Montana,EPSG:4326,"",Iron,"Gadolinium,Cerium,Erbium,Samarium,Terbium,Europium,Thulium,Holmium,Dysprosium,Praseodymium,Neoymium,Lutetium,Lanthanum,Ytterbium,Iron,,Yttrium","Peralkaline igneous HFSE- REE,U-M layered intrusion iron-titanium- vanadium",-112.1156,47.6555,POINT (-112.1156000000000006 47.6555000000000035),1692,GEO,https://mrdata.usgs.gov/mrds364
https://minmod.isi.edu/resource/site__mrdata-usgs-gov-mrds__10012579,https://mrdata.usgs.gov/mrds,10012579,United States,Colorado,EPSG:4326,"Walter,Mundy Claim,s RanchMundy Claim,Lewis C",Floyd Watters Ranch,",,,Lanthanum,Thulium,Lutetium,Holmium,,Neoymium,Europium,Yttrium,Praseodymium,,Ytterbium,Erbium,Dysprosium,Terbium,Gadolinium,Cerium,Samarium","Albitite-hosted uranium,Iron oxide uranium",-105.21974,38.18251,POINT (-105.2197400000000016 38.1825100000000006),259,GEO,https://mrdata.usgs.gov/mrds310
https://minmod.isi.edu/resource/site__mrdata-usgs-gov-mrds__10156765,https://mrdata.usgs.gov/mrds,10156765,United States,Washington,EPSG:4326,"",O Toole Mountain,"Lutetium,Europium,Yttrium,Neoymium,Cerium,Terbium,Erbium,Praseodymium,Holmium,Dysprosium,Samarium,Ytterbium,Gadolinium,Lanthanum,,Thulium","Skarn uranium- REE,Unconformity- related REE",-117.88892,48.81485,POINT (-117.8889199999999988 48.8148499999999999),145,GEO,https://mrdata.usgs.gov/mrds1320
https://minmod.isi.edu/resource/site__mrdata-usgs-gov-mrds__10308201,https://mrdata.usgs.gov/mrds,10308201,United States,Alaska,EPSG:4326,"",Unnamed (southern Russian Mountains),",Thulium,Holmium,Neoymium,,Terbium,Yttrium,Lanthanum,Gadolinium,Lutetium,Praseodymium,Europium,Erbium,Samarium,Ytterbium,Cerium,,Dysprosium",Vein polymetallic,-159.10387,61.63535,POINT (-159.1038700000000006 61.6353500000000025),1689,GEO,https://mrdata.usgs.gov/mrds1596
https://minmod.isi.edu/resource/site__mrdata-usgs-gov-mrds__10400641,https://mrdata.usgs.gov/mrds,10400641,United States,Wyoming,EPSG:4326,"1-9 Claims,Pocupine Nos",1 9,"Gadolinium,Holmium,Ytterbium,Samarium,Europium,Neoymium,Dysprosium,Erbium,Terbium,,Thulium,Cerium,Lanthanum,Praseodymium,Yttrium,Lutetium","Abyssal pegmatite REE,Unconformity- related REE",-107.891,44.845,POINT (-107.8910000000000053 44.8449999999999989),156,GEO,https://mrdata.usgs.gov/mrds238
https://minmod.isi.edu/resource/site__mrdata-usgs-gov-mrds__10072028,https://mrdata.usgs.gov/mrds,10072028,United States,Idaho,EPSG:4326,"",53,"Cerium,,Neoymium,Ytterbium,Holmium,Terbium,Thulium,Gadolinium,Lutetium,Praseodymium,Lanthanum,Dysprosium,Europium,Yttrium,Samarium,Erbium",Unconformity- related REE,-113.4828,44.94739,POINT (-113.4827999999999975 44.9473899999999986),268,GEO,https://mrdata.usgs.gov/mrds43
https://minmod.isi.edu/resource/site__mrdata-usgs-gov-mrds__10190877,https://mrdata.usgs.gov/mrds,10190877,Brazil,Bahia,EPSG:4326,"",Prado,"Lanthanum,Thulium,Samarium,Terbium,Lutetium,Gadolinium,Ytterbium,Erbium,Yttrium,Holmium,Cerium,Dysprosium,Praseodymium,Neoymium,Europium","Apatite intrusion REE,Carbonatite REE,Carbonatite laterite REE,Ion adsorption REE",-39.19888,-17.39755,POINT (-39.1988800000000026 -17.3975499999999990),8,GEO,https://mrdata.usgs.gov/mrds734
https://minmod.isi.edu/resource/site__mrdata-usgs-gov-mrds__10168283,https://mrdata.usgs.gov/mrds,10168283,United States,Idaho,EPSG:4326,"",Craig Black Sands,"Dysprosium,Thulium,Praseodymium,Yttrium,Samarium,Ytterbium,Gadolinium,Europium,Lutetium,Erbium,Lanthanum,Neoymium,Terbium,Cerium,Holmium","Apatite intrusion REE,Ion adsorption REE,Unconformity- related REE",-116.35932,46.61516,POINT (-116.3593199999999968 46.6151600000000030),209,GEO,https://mrdata.usgs.gov/mrds72
https://minmod.isi.edu/resource/site__mrdata-usgs-gov-mrds__10044338,https://mrdata.usgs.gov/mrds,10044338,United States,Nevada,EPSG:4326,Red Top Claim,Placer Monazite,"Terbium,Samarium,Dysprosium,Cerium,Europium,Yttrium,Erbium,Lanthanum,Holmium,Gadolinium,Ytterbium,,Lutetium,Praseodymium,Thulium,pper,Neoymium","Fluvial placer REE,Peralkaline igneous HFSE- REE",-117.0637,38.69132,POINT (-117.0636999999999972 38.6913199999999975),119,GEO,https://mrdata.usgs.gov/mrds1191
https://minmod.isi.edu/resource/site__mrdata-usgs-gov-mrds__10087865,https://mrdata.usgs.gov/mrds,10087865,United States,Colorado,EPSG:4326,"",Vona Mae,"Cerium,Neoymium,Gadolinium,Lutetium,Thulium,Holmium,Samarium,Yttrium,Terbium,,Erbium,Lanthanum,Praseodymium,Europium,Ytterbium,Dysprosium","Abyssal pegmatite REE,Peralkaline igneous HFSE- REE",-105.26642,40.70415,POINT (-105.2664199999999965 40.7041499999999985),240,GEO,https://mrdata.usgs.gov/mrds211
https://minmod.isi.edu/resource/site__mrdata-usgs-gov-mrds__10231199,https://mrdata.usgs.gov/mrds,10231199,Brazil,"",EPSG:4326,"",Aracruz,"Thulium,Terbium,Gadolinium,Ytterbium,Europium,Erbium,Zirnium,Cerium,,Yttrium,Dysprosium,Praseodymium,Holmium,Samarium,Lanthanum,Lutetium,Neoymium","Heavy mineral sands,Paleoplacer heavy mineral sands",-40.03218,-19.98077,POINT (-40.0321799999999968 -19.9807699999999997),22,GEO,https://mrdata.usgs.gov/mrds356
https://minmod.isi.edu/resource/site__mrdata-usgs-gov-mrds__10014276,https://mrdata.usgs.gov/mrds,10014276,United States,New Mexico,EPSG:4326,"Las Tablas,Alma Kansas City,Mines,Silver Spur Old Eureka,Hoyt-Seward,Meadow,Canary Bird,Eureka Loma",Persimmon Peak Las Tablas,"Holmium,,,Erbium,Ytterbium,Lanthanum,Europium,,Dysprosium,Praseodymium,Thulium,Neoymium,,Yttrium,Samarium,Cerium,Terbium,Gadolinium,Lutetium,","Abyssal pegmatite REE,LCT pegmatite,NYF pegmatite,Simple pegmatite",-106.05586,36.53587,POINT (-106.0558599999999956 36.5358700000000027),188,GEO,https://mrdata.usgs.gov/mrds646
https://minmod.isi.edu/resource/site__mrdata-usgs-gov-mrds__10160331,https://mrdata.usgs.gov/mrds,10160331,United States,Alaska,EPSG:4326,"Innesvale Gulch,Hokeley Gulch",Deep Tributaries,"Gold,Lutetium,Erbium,Holmium,Cerium,Samarium,Gadolinium,Yttrium,,Terbium,Lanthanum,Ytterbium,Thulium,Dysprosium,Praseodymium,,,Neoymium,Silver,Europium,","",-150.96475,65.06211,POINT (-150.9647500000000093 65.0621100000000041),152,GEO,https://mrdata.usgs.gov/mrds30
https://minmod.isi.edu/resource/site__mrdata-usgs-gov-mrds__10067317,https://mrdata.usgs.gov/mrds,10067317,United States,California,EPSG:4326,"",Unknown,"Erbium,Gadolinium,Lanthanum,Terbium,Europium,Dysprosium,Cerium,Neoymium,,Thulium,Ytterbium,Holmium,Praseodymium,Yttrium,Lutetium,Samarium","Apatite intrusion REE,Breccia pipe REE,Carbonatite laterite REE,Ion adsorption REE,Unconformity- related REE",-115.50084,35.5,POINT (-115.5008399999999966 35.5000000000000000),172,GEO,https://mrdata.usgs.gov/mrds79
https://minmod.isi.edu/resource/site__mrdata-usgs-gov-mrds__10090138,https://mrdata.usgs.gov/mrds,10090138,United States,Utah,EPSG:4326,"",Lake Bonneville Sediments,"Zirnium,Lanthanum,Lutetium,Holmium,Samarium,Dysprosium,,Gadolinium,Terbium,,Ytterbium,Europium,Thulium,Erbium,Yttrium,Praseodymium,Neoymium,Cerium","Fluvial placer REE,Heavy mineral sands,Ion adsorption REE",-113.80473,39.81688,POINT (-113.8047300000000064 39.8168799999999976),186,GEO,https://mrdata.usgs.gov/mrds380
https://minmod.isi.edu/resource/site__mrdata-usgs-gov-mrds__10079767,https://mrdata.usgs.gov/mrds,10079767,United States,Alabama,EPSG:4326,"",Elmore Pit,", Gravel,,Yttrium,Lanthanum,Holmium,Praseodymium,Samarium,Lutetium,Europium,Erbium,Ytterbium,Neoymium,Zirnium,, ,,Gadolinium,Thulium,Terbium,Dysprosium,Cerium","Heavy mineral sands,Paleoplacer heavy mineral sands",-86.33054,32.53378,POINT (-86.3305399999999992 32.5337800000000001),132,GEO,https://mrdata.usgs.gov/mrds1015
https://minmod.isi.edu/resource/site__mrdata-usgs-gov-mrds__10133886,https://mrdata.usgs.gov/mrds,10133886,China,"",EPSG:4326,"Bantan,Beihai",Beihai,"Neoymium,Terbium,,Lanthanum,Erbium,Samarium,Ytterbium,Zirnium,Yttrium,Praseodymium,Dysprosium,Cerium,Gadolinium,Thulium,Holmium,Europium,Lutetium","Heavy mineral sands,Paleoplacer heavy mineral sands",109.09957,21.48281,POINT (109.0995699999999999 21.4828100000000006),88,GEO,https://mrdata.usgs.gov/mrds388
https://minmod.isi.edu/resource/site__mrdata-usgs-gov-mrds__10164185,https://mrdata.usgs.gov/mrds,10164185,United States,California,EPSG:4326,"",ral Hill,"Samarium,Lutetium,Yttrium,Gadolinium,Ytterbium,Thulium,Cerium,Erbium,Neoymium,Holmium,Praseodymium,Europium,Lanthanum,Dysprosium,Terbium","Apatite intrusion REE,Breccia pipe REE,Carbonatite laterite REE,Ion adsorption REE",-115.51224,35.4964,POINT (-115.5122400000000056 35.4964000000000013),172,GEO,https://mrdata.usgs.gov/mrds782
https://minmod.isi.edu/resource/site__mrdata-usgs-gov-mrds__10108258,https://mrdata.usgs.gov/mrds,10108258,United States,Colorado,EPSG:4326,"",Lode,"Holmium,Europium,Dysprosium,Thulium,Erbium,Cerium,Terbium,Lutetium,,Gadolinium, ,Ytterbium,Yttrium,Neoymium,Lanthanum,Praseodymium,Samarium","Abyssal pegmatite REE,Peralkaline igneous HFSE- REE",-105.28641,39.07806,POINT (-105.2864100000000036 39.0780600000000007),247,GEO,https://mrdata.usgs.gov/mrds457
https://minmod.isi.edu/resource/site__mrdata-usgs-gov-mrds__10087819,https://mrdata.usgs.gov/mrds,10087819,United States,Colorado,EPSG:4326,"2 Mine,Deep Hole Mine,Madonna No",2,"Praseodymium,Gadolinium,Neoymium,Dysprosium,Terbium,Thulium,Ytterbium,Europium,Holmium,Yttrium,Lanthanum,,Samarium,Cerium,Lutetium,Erbium,","Abyssal pegmatite REE,NYF pegmatite,Simple pegmatite",-105.19462,39.37715,POINT (-105.1946200000000005 39.3771500000000003),266,GEO,https://mrdata.usgs.gov/mrds438
https://minmod.isi.edu/resource/site__mrdata-usgs-gov-mrds__10209282,https://mrdata.usgs.gov/mrds,10209282,United States,Alaska,EPSG:4326,"",Golovnin Bay,"Lanthanum,Terbium,Gadolinium,Dysprosium,Yttrium,Ytterbium,Samarium,Europium,Holmium,,,Lutetium,Erbium,Cerium,Praseodymium,Thulium,Neoymium",Fluvial placer niobium-tantalum,-162.91763,64.52374,POINT (-162.9176300000000026 64.5237400000000036),86,GEO,https://mrdata.usgs.gov/mrds57
https://minmod.isi.edu/resource/site__mrdata-usgs-gov-mrds__10136625,https://mrdata.usgs.gov/mrds,10136625,United States,Alaska,EPSG:4326,"",Icy Bay,"Lutetium,,Samarium,Gold,Dysprosium,Cerium,Holmium,Thulium,Lanthanum,Praseodymium,Terbium,Erbium,Yttrium,Europium,Gadolinium,Neoymium,Ytterbium",Shoreline placer gold,-141.55233,59.97686,POINT (-141.5523300000000120 59.9768600000000021),27,GEO,https://mrdata.usgs.gov/mrds257
https://minmod.isi.edu/resource/site__mrdata-usgs-gov-mrds__10290173,https://mrdata.usgs.gov/mrds,10290173,United States,Idaho,EPSG:4326,"",Idaho,"Cerium,Gadolinium,Neoymium,Ytterbium,Dysprosium,Samarium,Terbium,Lanthanum,Holmium,Erbium,Gold,Europium,Praseodymium,Lutetium,Yttrium,Thulium",Apatite intrusion REE,-115.63789,46.45127,POINT (-115.6378899999999987 46.4512700000000009),283,GEO,https://mrdata.usgs.gov/mrds926
https://minmod.isi.edu/resource/site__mrdata-usgs-gov-mrds__10085029,https://mrdata.usgs.gov/mrds,10085029,India,"",EPSG:4326,Orissa Sands Complex,Chatrapur,"Lanthanum,Gadolinium,Dysprosium,Cerium,Zirnium,Ytterbium,Praseodymium,Samarium,Holmium,Thulium,Yttrium,Europium,Lutetium,Terbium,Erbium,Neoymium","Heavy mineral sands,Paleoplacer heavy mineral sands",84.95021,19.29969,POINT (84.9502099999999984 19.2996899999999982),24,GEO,https://mrdata.usgs.gov/mrds1273
https://minmod.isi.edu/resource/site__mrdata-usgs-gov-mrds__10216711,https://mrdata.usgs.gov/mrds,10216711,United States,Idaho,EPSG:4326,"",Eightmile Placer,"Terbium,Lutetium,Dysprosium,Holmium,Gadolinium,,Samarium,Gold,Praseodymium,Neoymium,Thulium,Cerium,Ytterbium,Lanthanum,Erbium,Yttrium,Europium","Fluvial placer REE,Fluvial placer niobium-tantalum",-115.37705,44.21428,POINT (-115.3770499999999970 44.2142800000000022),317,GEO,https://mrdata.usgs.gov/mrds732
https://minmod.isi.edu/resource/site__mrdata-usgs-gov-mrds__10002772,https://mrdata.usgs.gov/mrds,10002772,United States,Alaska,EPSG:4326,"",Woodchopper Placer,",Thulium,Lanthanum,Terbium,Samarium,Europium,Praseodymium,Gadolinium,Ytterbium,Holmium,Erbium,Yttrium,Cerium,Neoymium,Dysprosium,Gold,Lutetium","Fluvial placer REE,Fluvial placer gold,Shoreline placer gold",-143.41175,65.29476,POINT (-143.4117500000000121 65.2947599999999966),137,GEO,https://mrdata.usgs.gov/mrds124
https://minmod.isi.edu/resource/site__mrdata-usgs-gov-mrds__10097880,https://mrdata.usgs.gov/mrds,10097880,United States,New Mexico,EPSG:4326,Kiawa Group,Buena Vista,"Holmium,,Thulium,Praseodymium,Europium,Neoymium,Cerium,Terbium,Lutetium,,Dysprosium,Samarium,Lanthanum,Yttrium,Gadolinium,,Erbium,Ytterbium,","Abyssal pegmatite REE,NYF pegmatite,Simple pegmatite",-106.06864,36.58476,POINT (-106.0686400000000020 36.5847600000000028),188,GEO,https://mrdata.usgs.gov/mrds401
https://minmod.isi.edu/resource/site__mrdata-usgs-gov-mrds__10110447,https://mrdata.usgs.gov/mrds,10110447,United States,North Carolina,EPSG:4326,"",South Muddy Lower urse Placer,"Holmium,Lutetium,Lanthanum,Yttrium,Praseodymium,Neoymium,Dysprosium,Samarium,Gold,Thulium,Europium,Cerium,Terbium,Ytterbium,Gadolinium,Erbium","Fluvial placer REE,Fluvial placer gold",-81.85484,35.65677,POINT (-81.8548399999999958 35.6567700000000016),220,GEO,https://mrdata.usgs.gov/mrds687
https://minmod.isi.edu/resource/site__mrdata-usgs-gov-mrds__60000783,https://mrdata.usgs.gov/mrds,60000783,Australia,Queensland,EPSG:4326,Rocky Point Deposit,Agnes Water,"Dysprosium,Cerium,Samarium,Yttrium,Gadolinium,Lutetium,Europium,Terbium,Ytterbium,Holmium,,Thulium,Erbium,Neoymium,Praseodymium,Lanthanum,Zirnium,","Heavy mineral sands,Paleoplacer heavy mineral sands",151.90695,-24.20914,POINT (151.9069499999999948 -24.2091400000000014),1718,GEO,https://mrdata.usgs.gov/mrds1625
https://minmod.isi.edu/resource/site__mrdata-usgs-gov-mrds__10186393,https://mrdata.usgs.gov/mrds,10186393,United States,Arizona,EPSG:4326,"Fairview Tunnel,Patented Claims M S 2107 and 3773,Fairview Group",Fairview,"Ytterbium,Gold,Samarium,Gadolinium,Europium,Erbium,Lutetium,Neoymium,Lanthanum,Dysprosium,Yttrium,Holmium,Cerium,Thulium,Praseodymium,Terbium","Breccia pipe REE,Breccia pipe gold",-112.33074,34.22975,POINT (-112.3307400000000058 34.2297500000000028),174,GEO,https://mrdata.usgs.gov/mrds503
https://minmod.isi.edu/resource/site__mrdata-usgs-gov-mrds__10071553,https://mrdata.usgs.gov/mrds,10071553,United States,Idaho,EPSG:4326,Arlise Vein,Emily,",Ytterbium,Gadolinium,Cerium,Holmium,Thulium,Yttrium,Lanthanum,Praseodymium,Europium,Lutetium,Zirnium,,,Gold,Dysprosium,Silver,Erbium,Terbium,Neoymium,Samarium","Alkalic epithermal gold ± Ag,Oxidized intrusion- related gold",-115.72158,45.25487,POINT (-115.7215800000000030 45.2548699999999968),300,GEO,https://mrdata.usgs.gov/mrds621
https://minmod.isi.edu/resource/site__mrdata-usgs-gov-mrds__10182897,https://mrdata.usgs.gov/mrds,10182897,Australia,New South Wales,EPSG:4326,"",Nabiac,"Lutetium,Europium,Lanthanum,Gadolinium,Terbium,Erbium,Holmium,Neoymium,Ytterbium,Thulium,Praseodymium,Dysprosium,Yttrium,,Zirnium,Cerium,Samarium","Fluvial placer REE,Heavy mineral sands",152.48183,-32.27963,POINT (152.4818300000000022 -32.2796299999999974),81,GEO,https://mrdata.usgs.gov/mrds143
https://minmod.isi.edu/resource/site__mrdata-usgs-gov-mrds__10085030,https://mrdata.usgs.gov/mrds,10085030,New Zealand,"",EPSG:4326,Twelve Mile Beach Deposit,Barrytown,"Praseodymium,Erbium,Cerium,Samarium,Holmium,Gadolinium,Ytterbium,Neoymium,Zirnium,Lanthanum,Lutetium,Europium,Gold,Dysprosium,Yttrium,Thulium,Terbium","Heavy mineral sands,Paleoplacer heavy mineral sands",171.31477,-42.22983,POINT (171.3147700000000100 -42.2298299999999998),12,GEO,https://mrdata.usgs.gov/mrds419
https://minmod.isi.edu/resource/site__mrdata-usgs-gov-mrds__10172287,https://mrdata.usgs.gov/mrds,10172287,United States,Montana,EPSG:4326,"",Siderock Green Horn Area,"Thulium,Gadolinium,,Erbium,Holmium,Lanthanum,,Dysprosium,Europium,Yttrium,,Neoymium,Lutetium,,, ,Cerium,Samarium,Terbium,Praseodymium,Ytterbium","Apatite- nepheline- titanite intrusion,Phosphorite",-112.34726,44.7424,POINT (-112.3472600000000057 44.7424000000000035),264,GEO,https://mrdata.usgs.gov/mrds1038
https://minmod.isi.edu/resource/site__mrdata-usgs-gov-mrds__10071264,https://mrdata.usgs.gov/mrds,10071264,United States,North Carolina,EPSG:4326,"",First Broad River Headwaters Gold Placers,"Europium,Holmium,Gold,Lanthanum,Thulium,Erbium,Gadolinium,Lutetium,Dysprosium,Yttrium,Terbium,Praseodymium,Ytterbium,Samarium,Cerium,Neoymium","Epizonal orogenic gold,Fluvial placer REE,Fluvial placer gold",-81.80567,35.53982,POINT (-81.8056700000000063 35.5398199999999989),213,GEO,https://mrdata.usgs.gov/mrds811
https://minmod.isi.edu/resource/site__mrdata-usgs-gov-mrds__10014269,https://mrdata.usgs.gov/mrds,10014269,United States,New Mexico,EPSG:4326,"1,Blue Eagle No",Fridlund,"Europium,Lanthanum,Lutetium,Holmium,Erbium,Samarium,Thulium,Yttrium,Praseodymium,Neoymium,Gadolinium,Dysprosium,Ytterbium,Cerium,,Terbium,,","Abyssal pegmatite REE,NYF pegmatite",-106.03752,36.49282,POINT (-106.0375200000000007 36.4928200000000018),188,GEO,https://mrdata.usgs.gov/mrds330
https://minmod.isi.edu/resource/site__mrdata-usgs-gov-mrds__10070505,https://mrdata.usgs.gov/mrds,10070505,United States,Idaho,EPSG:4326,"",Upper Owl Placer,"Iron,Gadolinium,Lanthanum,Europium,Thulium,Ytterbium,Erbium,Dysprosium,Yttrium,Praseodymium,Gold,Neoymium,Terbium,Holmium,Lutetium,Zirnium,Samarium,Cerium","Fluvial placer REE,Fluvial placer gold,Fluvial placer niobium-tantalum",-114.44674,45.32018,POINT (-114.4467400000000055 45.3201800000000006),289,GEO,https://mrdata.usgs.gov/mrds80
https://minmod.isi.edu/resource/site__mrdata-usgs-gov-mrds__60000822,https://mrdata.usgs.gov/mrds,60000822,Mozambique,"",EPSG:4326,"",Pebane,"Gadolinium,Cerium,Terbium,Thulium,Holmium,,Ytterbium,Samarium,Zirnium,,Lanthanum,Praseodymium,Erbium,Lutetium,Dysprosium,Yttrium,Neoymium,Europium","Heavy mineral sands,Paleoplacer heavy mineral sands",38.00124,-16.99703,POINT (38.0012400000000028 -16.9970299999999988),31,GEO,https://mrdata.usgs.gov/mrds575
https://minmod.isi.edu/resource/site__mrdata-usgs-gov-mrds__10001481,https://mrdata.usgs.gov/mrds,10001481,United States,Alaska,EPSG:4326,"C,Carsten Operation,H",Portage,",Thulium,Dysprosium,Cerium,Ytterbium,,Gold,Lanthanum,Erbium,Neoymium,Yttrium,Samarium,Gadolinium,Praseodymium,Lutetium,Europium,Holmium,Terbium,","Fluvial placer gold,Shoreline placer gold",-144.61569,65.46168,POINT (-144.6156900000000007 65.4616800000000012),124,GEO,https://mrdata.usgs.gov/mrds1427
https://minmod.isi.edu/resource/site__mrdata-usgs-gov-mrds__10188931,https://mrdata.usgs.gov/mrds,10188931,United States,California,EPSG:4326,"",1 24,"Ytterbium,Samarium,Europium,Lutetium,Thulium,Cerium,Lanthanum,Praseodymium,Erbium,Yttrium,Holmium,Neoymium,Dysprosium,,Gadolinium,Gold,Terbium",Greisen beryllium±Li,-117.14477,34.30142,POINT (-117.1447699999999941 34.3014200000000002),170,GEO,https://mrdata.usgs.gov/mrds268
https://minmod.isi.edu/resource/site__mrdata-usgs-gov-mrds__10124345,https://mrdata.usgs.gov/mrds,10124345,United States,Montana,EPSG:4326,"",Iron,"Thulium,Lanthanum,,Lutetium,Cerium,Yttrium,Iron,Neoymium,Holmium,Praseodymium,Ytterbium,Gadolinium,Samarium,Dysprosium,Erbium,Europium,Terbium","Hematite- dominant IOA,Magnetite- dominant IOA,Peralkaline igneous HFSE- REE,U-M layered intrusion iron-titanium- vanadium",-112.55232,47.791,POINT (-112.5523199999999946 47.7909999999999968),1660,GEO,https://mrdata.usgs.gov/mrds364
https://minmod.isi.edu/resource/site__mrdata-usgs-gov-mrds__10124778,https://mrdata.usgs.gov/mrds,10124778,United States,Montana,EPSG:4326,"",Unnamed Rare Earth,"Thulium,Praseodymium,Yttrium,Erbium,Dysprosium,Samarium,Lanthanum,Lutetium,Neoymium,Europium,Cerium,Ytterbium,Terbium,Gadolinium,Holmium","Apatite intrusion REE,Ion adsorption REE",-111.52505,45.46071,POINT (-111.5250499999999931 45.4607099999999988),276,GEO,https://mrdata.usgs.gov/mrds184
https://minmod.isi.edu/resource/site__mrdata-usgs-gov-mrds__10290363,https://mrdata.usgs.gov/mrds,10290363,United States,Idaho,EPSG:4326,Deer,Deer,"Yttrium,Neoymium,Lutetium,Dysprosium,Samarium,Lanthanum,,Thulium,Erbium,Ytterbium,Cerium,Gadolinium,Holmium,Terbium,Praseodymium,Europium",Peralkaline igneous HFSE- REE,-113.4684,44.97409,POINT (-113.4684000000000026 44.9740899999999968),268,GEO,https://mrdata.usgs.gov/mrds425
https://minmod.isi.edu/resource/site__mrdata-usgs-gov-mrds__10173363,https://mrdata.usgs.gov/mrds,10173363,United States,Montana,EPSG:4326,"",Wise River Johnson Area,",Yttrium,Samarium,Terbium,,Holmium,Neoymium,,Lutetium,Europium, ,,Lanthanum,Thulium,Cerium,Ytterbium,Dysprosium,Gadolinium,Praseodymium,,Erbium",Phosphorite,-112.957,45.82409,POINT (-112.9569999999999936 45.8240899999999982),304,GEO,https://mrdata.usgs.gov/mrds1291
https://minmod.isi.edu/resource/site__mrdata-usgs-gov-mrds__10123897,https://mrdata.usgs.gov/mrds,10123897,United States,Montana,EPSG:4326,"",Hill Syncline,",,Erbium,Gadolinium,Samarium,Lutetium,Dysprosium,,Terbium, ,Neoymium,Europium,Cerium,Yttrium,Praseodymium,Thulium,Lanthanum,Holmium,Ytterbium,,","Apatite intrusion REE,Apatite- nepheline- titanite intrusion,Phosphorite",-112.9606,45.74709,POINT (-112.9605999999999995 45.7470900000000000),304,GEO,https://mrdata.usgs.gov/mrds1347
https://minmod.isi.edu/resource/site__mrdata-usgs-gov-mrds__10212860,https://mrdata.usgs.gov/mrds,10212860,United States,California,EPSG:4326,"Baby Blue Prospect,U-Thor,Ajax Prospect,6,4,Music Valley Rare Earth Deposit,Thunderbird,Hansen Number 2,Uranus Numbers 2,Uranium 2",Music Valley Rare Earth,"Neoymium,Samarium,Europium,Yttrium,Cerium,Lanthanum,Erbium,Praseodymium,Gadolinium,Terbium,Ytterbium,Holmium,,Lutetium,Dysprosium,Thulium","Apatite intrusion REE,Fluvial placer REE,Ion adsorption REE,Skarn uranium- REE,Unconformity- related REE",-115.93254,33.98423,POINT (-115.9325400000000030 33.9842299999999966),171,GEO,https://mrdata.usgs.gov/mrds353
https://minmod.isi.edu/resource/site__mrdata-usgs-gov-mrds__10012877,https://mrdata.usgs.gov/mrds,10012877,United States,Colorado,EPSG:4326,"",Starbuck,"Neoymium,Gadolinium,Lutetium,Lanthanum,Yttrium,Holmium,Thulium,Praseodymium,Dysprosium,Samarium,,Terbium,Gold,Erbium,Europium,Ytterbium,Cerium","Abyssal pegmatite REE,Apatite intrusion REE,Unconformity- related REE",-105.32085,38.20001,POINT (-105.3208499999999930 38.2000099999999989),259,GEO,https://mrdata.usgs.gov/mrds520
https://minmod.isi.edu/resource/site__mrdata-usgs-gov-mrds__10245998,https://mrdata.usgs.gov/mrds,10245998,United States,Montana,EPSG:4326,Placer Mines Inc,Powder Gulch,"Lanthanum,Europium,Yttrium,Thulium,Neoymium,Samarium,,Zirnium,Ytterbium,Terbium,Dysprosium,Lutetium,Holmium,,Iron,Erbium,Gadolinium,Praseodymium,Cerium",Fluvial placer REE,-112.72729,45.9674,POINT (-112.7272899999999964 45.9673999999999978),295,GEO,https://mrdata.usgs.gov/mrds694
https://minmod.isi.edu/resource/site__mrdata-usgs-gov-mrds__10014452,https://mrdata.usgs.gov/mrds,10014452,United States,Colorado,EPSG:4326,"",Unnamed,"Lutetium,,Dysprosium,Samarium,Thulium,Neoymium,Yttrium,Ytterbium,Praseodymium,Lanthanum,Terbium,Cerium,Erbium,Europium,Gadolinium,,Holmium,","Apatite intrusion REE,Peralkaline igneous HFSE- REE",-107.18619,38.35778,POINT (-107.1861899999999963 38.3577799999999982),212,GEO,https://mrdata.usgs.gov/mrds111
https://minmod.isi.edu/resource/site__mrdata-usgs-gov-mrds__10096361,https://mrdata.usgs.gov/mrds,10096361,United States,Idaho,EPSG:4326,"",Monazite Queen,"Neoymium,Yttrium,Dysprosium,Lutetium,Praseodymium,Erbium,Ytterbium,Holmium,Samarium,Europium,Terbium,Cerium,,Gadolinium,,,Lanthanum,Thulium","Apatite intrusion REE,Apatite- nepheline- titanite intrusion,Ion adsorption REE,Unconformity- related REE",-114.27653,45.45848,POINT (-114.2765299999999939 45.4584800000000016),308,GEO,https://mrdata.usgs.gov/mrds433
https://minmod.isi.edu/resource/site__mrdata-usgs-gov-mrds__10000228,https://mrdata.usgs.gov/mrds,10000228,United States,Alaska,EPSG:4326,"Wano,Claims,Polson and Ickis,Veta,Astor,Daly-West,Apex,Hillside,Prospect",Polson Ickis,"Samarium,Lutetium,Gold,Praseodymium,Europium,Gadolinium,Neoymium,Lanthanum,pper,Holmium,Yttrium,Erbium,Cerium,Thulium,Terbium,Dysprosium,Ytterbium","Orogenic copper ± gold,Vein copper",-132.02398,54.94973,POINT (-132.0239799999999946 54.9497300000000024),60,GEO,https://mrdata.usgs.gov/mrds115
https://minmod.isi.edu/resource/site__mrdata-usgs-gov-mrds__10144743,https://mrdata.usgs.gov/mrds,10144743,United States,Idaho,EPSG:4326,"",Paddy Flat Placer,"Gadolinium,Yttrium,Europium,Praseodymium,Cerium,Lanthanum,Lutetium,Erbium,Neoymium,Samarium,Terbium,Thulium,Dysprosium,Ytterbium,Holmium",Fluvial placer REE,-115.96288,44.79767,POINT (-115.9628799999999984 44.7976699999999965),296,GEO,https://mrdata.usgs.gov/mrds1176
https://minmod.isi.edu/resource/site__mrdata-usgs-gov-mrds__10072040,https://mrdata.usgs.gov/mrds,10072040,United States,Idaho,EPSG:4326,"",Mohawk,"Dysprosium,Gadolinium,Terbium,Praseodymium,,Samarium,Europium,Erbium,Ytterbium,Lutetium,Cerium,Thulium,Lanthanum,Holmium,Yttrium,Neoymium","",-113.439,44.82679,POINT (-113.4389999999999930 44.8267900000000026),268,GEO,https://mrdata.usgs.gov/mrds818
https://minmod.isi.edu/resource/site__mrdata-usgs-gov-mrds__10071815,https://mrdata.usgs.gov/mrds,10071815,United States,Idaho,EPSG:4326,High Meadow Placers,Haypress Meadow Placer,"Lutetium,Lanthanum,Dysprosium,Neoymium,Praseodymium,Gold,Erbium,Cerium,Samarium,Europium,Holmium,Terbium,Zirnium,Yttrium,Thulium,Gadolinium,Ytterbium","Fluvial placer REE,Paleoplacer heavy mineral sands",-115.18179,45.29488,POINT (-115.1817900000000066 45.2948799999999991),270,GEO,https://mrdata.usgs.gov/mrds253
https://minmod.isi.edu/resource/site__mrdata-usgs-gov-mrds__10282151,https://mrdata.usgs.gov/mrds,10282151,United States,Alaska,EPSG:4326,"Four Above East,Gold GulchEastern Star,Grubstake Center,Marys Above,Spring Creek 2-4,Below,Spring Creek Above 2,Above Disc,Golden Vale North,Big Creek Above,Eastern Star Ext,Prospector No,Cosine North,Drumlummon,T and M Site-Chandalar,Sine Load Morth,Woodchuck Cr,Three Above West,Big Mick North,Cosine EastPioneer,Above,Ast,Hillside Ext,Prospector East,Disc,Big Squaw West,Tobin Cache,Pioneer North,Three Above East,Tobin Disc,Little Squaw Creek Above,Cosine East No,Little Squaw North,Grubstake West,Prospector West,Big Squaw East,1",Tobin Cache,",Yttrium,Lutetium,Gold,,Erbium,Cerium,Thulium,Neoymium,Terbium,Gadolinium,Dysprosium,Ytterbium,Holmium,Praseodymium,Samarium,,Europium,Lanthanum",Epizonal orogenic antimony ± gold,-148.21999,67.55804,POINT (-148.2199899999999957 67.5580400000000054),84,GEO,https://mrdata.usgs.gov/mrds204
https://minmod.isi.edu/resource/site__mrdata-usgs-gov-mrds__10014572,https://mrdata.usgs.gov/mrds,10014572,United States,Colorado,EPSG:4326,"",Unnamed,"Cerium,Lanthanum,Holmium,Europium,Lutetium,Erbium,Dysprosium,Thulium,,Ytterbium,pper,Praseodymium,Gadolinium,Neoymium,,Terbium,,Samarium,Yttrium","Apatite intrusion REE,Peralkaline igneous HFSE- REE",-107.0909,38.25694,POINT (-107.0909000000000049 38.2569400000000002),212,GEO,https://mrdata.usgs.gov/mrds111
https://minmod.isi.edu/resource/site__mrdata-usgs-gov-mrds__10242192,https://mrdata.usgs.gov/mrds,10242192,United States,Idaho,EPSG:4326,Stover-Nelson Property,Stover Nelson Monazite,"Cerium,Thulium,Gadolinium,Praseodymium,Lutetium,Holmium,Dysprosium,Erbium,Samarium,Terbium,Yttrium,Neoymium,Ytterbium,Europium,Lanthanum,Zirnium","Abyssal pegmatite REE,Ion adsorption REE,Peralkaline igneous HFSE- REE",-115.86678,45.20237,POINT (-115.8667800000000057 45.2023700000000019),315,GEO,https://mrdata.usgs.gov/mrds468
https://minmod.isi.edu/resource/site__mrdata-usgs-gov-mrds__10217616,https://mrdata.usgs.gov/mrds,10217616,United States,Idaho,EPSG:4326,"",West Mountain Placers,"Neoymium,Yttrium,Gadolinium,Lutetium,Erbium,Dysprosium,Europium,Holmium,Praseodymium,Samarium,Lanthanum,Thulium,Terbium,Cerium,Ytterbium",Fluvial placer REE,-116.11348,44.67127,POINT (-116.1134799999999956 44.6712699999999998),296,GEO,https://mrdata.usgs.gov/mrds527
https://minmod.isi.edu/resource/site__mrdata-usgs-gov-mrds__10017696,https://mrdata.usgs.gov/mrds,10017696,United States,Colorado,EPSG:4326,"",Unknown,"Neoymium,Holmium,Samarium,Erbium,Europium,Lutetium,Praseodymium,Ytterbium,Dysprosium,Thulium,Cerium,Lanthanum,Yttrium,Terbium,Gadolinium","Apatite intrusion REE,Breccia pipe REE,Peralkaline igneous HFSE- REE",-104.94797,38.76005,POINT (-104.9479699999999980 38.7600499999999997),235,GEO,https://mrdata.usgs.gov/mrds79
https://minmod.isi.edu/resource/site__mrdata-usgs-gov-mrds__10158805,https://mrdata.usgs.gov/mrds,10158805,Australia,Western Australia,EPSG:4326,"",Hamel Waroona,",Dysprosium,Samarium,Europium,Lanthanum,Lutetium,Thulium,Neoymium,Holmium,Gadolinium,Cerium,Zirnium,Yttrium,Praseodymium,Ytterbium,Terbium,Erbium","Carbonatite laterite REE,Fluvial placer REE,Heavy mineral sands",115.91603,-32.82929,POINT (115.9160300000000063 -32.8292900000000003),1656,GEO,https://mrdata.usgs.gov/mrds1563
https://minmod.isi.edu/resource/site__mrdata-usgs-gov-mrds__10248039,https://mrdata.usgs.gov/mrds,10248039,United States,New Mexico,EPSG:4326,"",Big Bug,"Yttrium,,Neoymium,Terbium,Thulium,Dysprosium,Europium,Samarium,Gadolinium, ,Holmium,Lutetium,Cerium,Erbium,Ytterbium,Praseodymium,Lanthanum","Carbonatite niobium,Greisen beryllium±Li,Peralkaline igneous HFSE- REE,Skarn beryllium- fluorite",-105.97728,36.47534,POINT (-105.9772799999999933 36.4753400000000028),189,GEO,https://mrdata.usgs.gov/mrds1089
https://minmod.isi.edu/resource/site__mrdata-usgs-gov-mrds__10192216,https://mrdata.usgs.gov/mrds,10192216,United States,Florida,EPSG:4326,"",Maxville Tract,"Holmium,Dysprosium,Praseodymium,Erbium,,Terbium,Neoymium,,Gadolinium,Lanthanum,Ytterbium,Thulium,Lutetium,Cerium,Yttrium,Samarium,Europium,Zirnium","Heavy mineral sands,Paleoplacer heavy mineral sands",-82.04155,30.16693,POINT (-82.0415500000000009 30.1669300000000007),178,GEO,https://mrdata.usgs.gov/mrds920
https://minmod.isi.edu/resource/site__mrdata-usgs-gov-mrds__10014407,https://mrdata.usgs.gov/mrds,10014407,United States,Colorado,EPSG:4326,"",Adair,"Samarium,Gadolinium,Terbium,Holmium,,Praseodymium,,, ,Ytterbium,,,Europium,Cerium,Lanthanum,Lutetium,Dysprosium,Thulium,Erbium,Yttrium,Neoymium","Apatite intrusion REE,Carbonatite REE,Carbonatite niobium",-107.17535,38.35083,POINT (-107.1753499999999946 38.3508300000000020),212,GEO,https://mrdata.usgs.gov/mrds461
https://minmod.isi.edu/resource/site__mrdata-usgs-gov-mrds__10134804,https://mrdata.usgs.gov/mrds,10134804,United States,Georgia,EPSG:4326,"",Folkston ncentrator,"Europium,Ytterbium,Thulium,Holmium,Terbium,Zirnium,Lutetium,,,Erbium,Neoymium,Lanthanum,Samarium,Cerium,Dysprosium,Yttrium,Praseodymium,Gadolinium","Fluvial placer REE,Ion adsorption REE",-81.97375,30.79082,POINT (-81.9737499999999955 30.7908200000000001),177,GEO,https://mrdata.usgs.gov/mrds731
https://minmod.isi.edu/resource/site__mrdata-usgs-gov-mrds__10143793,https://mrdata.usgs.gov/mrds,10143793,United States,Idaho,EPSG:4326,"Slug Creek Syncline,36-51,33-35,Area D,Trail Creek Lease,Johnson Creek,Area B,Aspen Range PropertyJohnson Creek",Trail Proposed,"Holmium,Europium,Yttrium,,Cerium, ,Samarium,Gadolinium,Thulium,Erbium,Terbium,Lutetium,Neoymium,,Ytterbium,Lanthanum,Praseodymium,,Dysprosium",Phosphorite,-111.4244,42.73552,POINT (-111.4244000000000057 42.7355200000000011),230,GEO,https://mrdata.usgs.gov/mrds192
https://minmod.isi.edu/resource/site__mrdata-usgs-gov-mrds__10188485,https://mrdata.usgs.gov/mrds,10188485,United States,California,EPSG:4326,"",Lucky Strike,"Yttrium,Ytterbium,Lanthanum,Samarium,Thulium,Erbium,Holmium,Cerium,Europium,Lutetium,Gadolinium,Terbium,Dysprosium,Neoymium,Praseodymium","Apatite intrusion REE,Breccia pipe REE,Carbonatite laterite REE,Ion adsorption REE,Peralkaline igneous HFSE- REE",-115.52774,35.4886,POINT (-115.5277399999999943 35.4885999999999981),172,GEO,https://mrdata.usgs.gov/mrds995
https://minmod.isi.edu/resource/site__mrdata-usgs-gov-mrds__10112054,https://mrdata.usgs.gov/mrds,10112054,United States,Alaska,EPSG:4326,"",Katakturuk River,"Lutetium,Thulium,Dysprosium,Yttrium,Samarium,Holmium,Erbium,Cerium,Praseodymium,Neoymium,Terbium,,Gadolinium,Ytterbium,Europium,Lanthanum",Apatite intrusion REE,-145.60351,69.58316,POINT (-145.6035100000000000 69.5831600000000066),62,GEO,https://mrdata.usgs.gov/mrds1136
https://minmod.isi.edu/resource/site__mrdata-usgs-gov-mrds__10071241,https://mrdata.usgs.gov/mrds,10071241,United States,Idaho,EPSG:4326,Gold Bar,Nip Tuck Placer,"Zirnium,Praseodymium,Thulium,Iron,Europium,Ytterbium,Erbium,Cerium,Yttrium,Lanthanum,Gold,Terbium,Dysprosium,Samarium,Neoymium,Gadolinium,Holmium,Lutetium,","Fluvial placer REE,Fluvial placer garnet,Fluvial placer niobium-tantalum",-114.92453,44.23428,POINT (-114.9245300000000043 44.2342799999999983),316,GEO,https://mrdata.usgs.gov/mrds566
https://minmod.isi.edu/resource/site__mrdata-usgs-gov-mrds__10078649,https://mrdata.usgs.gov/mrds,10078649,United States,South Carolina,EPSG:4326,"",Northern Trib Cherokee Monazite Placer,"Holmium,Praseodymium,,Terbium,Yttrium,Neoymium,Dysprosium,Gold,Lutetium,Lanthanum,Gadolinium,Europium,,Thulium,Erbium,Samarium,Cerium,Ytterbium",Fluvial placer REE,-81.67923,35.12591,POINT (-81.6792300000000040 35.1259099999999975),194,GEO,https://mrdata.usgs.gov/mrds127
https://minmod.isi.edu/resource/site__mrdata-usgs-gov-mrds__10089427,https://mrdata.usgs.gov/mrds,10089427,United States,Idaho,EPSG:4326,"26,Dry Ridge Unit 1,Stewart Canyon,Stewart Flat,1-4,Dry Valley,27,West Limb Georgetown Syncline,Area D,Area A",Husky No,"Erbium,,Europium,Lanthanum,,Holmium,Terbium,Praseodymium,Yttrium,Thulium,Samarium,Ytterbium,Lutetium,Gadolinium,Neoymium, ,Cerium,Dysprosium,",Phosphorite,-111.25441,42.61242,POINT (-111.2544099999999929 42.6124200000000002),203,GEO,https://mrdata.usgs.gov/mrds685
https://minmod.isi.edu/resource/site__mrdata-usgs-gov-mrds__10134182,https://mrdata.usgs.gov/mrds,10134182,Turkey,Giresun,EPSG:4326,"",Lahanos,"Yttrium,Ytterbium,Terbium,Thulium,Gold,Lutetium,Cerium,Neoymium,Holmium,pper,Praseodymium,Gadolinium,,Lanthanum,Europium,Erbium,Dysprosium,Samarium","Bimodal-mafic VMS,Felsic-siliciclastic VMS,Mafic-siliciclastic VMS,Mafic-ultramafic VMS",38.75154,40.91852,POINT (38.7515399999999985 40.9185200000000009),15,GEO,https://mrdata.usgs.gov/mrds1373
https://minmod.isi.edu/resource/site__mrdata-usgs-gov-mrds__10026744,https://mrdata.usgs.gov/mrds,10026744,United States,Arizona,EPSG:4326,"",Papago,"pper,Yttrium,Europium,Cerium,Holmium,Dysprosium,Samarium,Gadolinium,,Praseodymium,Silver,Lutetium,Thulium,Neoymium,Gold,Lanthanum,Erbium,Terbium,Ytterbium","Breccia pipe REE,Breccia pipe gold",-113.26047,32.09511,POINT (-113.2604699999999980 32.0951099999999983),162,GEO,https://mrdata.usgs.gov/mrds182
https://minmod.isi.edu/resource/site__mrdata-usgs-gov-mrds__10155936,https://mrdata.usgs.gov/mrds,10155936,United States,Washington,EPSG:4326,"",Schouweiler Road Pit Plant,"Thulium,Neoymium,Holmium,Ytterbium,Lutetium,Lanthanum,Terbium,Cerium,Yttrium,Erbium,Gadolinium,Samarium,Dysprosium,Praseodymium,Europium","Fluvial placer REE,Ion adsorption REE",-123.40845,47.00479,POINT (-123.4084500000000020 47.0047899999999998),106,GEO,https://mrdata.usgs.gov/mrds191
https://minmod.isi.edu/resource/site__mrdata-usgs-gov-mrds__10019539,https://mrdata.usgs.gov/mrds,10019539,United States,Montana,EPSG:4326,"",Janney Pegmatites,"Terbium,Lutetium,Cerium,Holmium,Neoymium,Erbium,Lanthanum,Praseodymium,Samarium,Gadolinium,Thulium,Dysprosium,Ytterbium,Yttrium,Europium","Abyssal pegmatite REE,Apatite intrusion REE",-112.47699,45.91046,POINT (-112.4769900000000007 45.9104600000000005),288,GEO,https://mrdata.usgs.gov/mrds251
https://minmod.isi.edu/resource/site__mrdata-usgs-gov-mrds__10009503,https://mrdata.usgs.gov/mrds,10009503,United States,Alaska,EPSG:4326,"",Little Squaw,"Ytterbium,Praseodymium,Yttrium,Samarium,Dysprosium,Neoymium,Lanthanum,Holmium,Gadolinium,,Thulium,,Terbium,Gold,Erbium,Lutetium,Europium,Cerium",Fluvial placer tungsten,-148.16996,67.56641,POINT (-148.1699600000000032 67.5664100000000047),84,GEO,https://mrdata.usgs.gov/mrds800
https://minmod.isi.edu/resource/site__mrdata-usgs-gov-mrds__10079769,https://mrdata.usgs.gov/mrds,10079769,United States,Alabama,EPSG:4326,"",Shorter Pits,"Erbium,Cerium,Gadolinium,Zirnium,Ytterbium,Holmium,Thulium,Neoymium,,Dysprosium,,Samarium,,Yttrium, Gravel,Lanthanum,Terbium,Europium,Praseodymium,Lutetium,,","Heavy mineral sands,Paleoplacer heavy mineral sands",-85.97164,32.43045,POINT (-85.9716399999999936 32.4304500000000004),132,GEO,https://mrdata.usgs.gov/mrds894
https://minmod.isi.edu/resource/site__mrdata-usgs-gov-mrds__10014271,https://mrdata.usgs.gov/mrds,10014271,United States,New Mexico,EPSG:4326,"",Capitan,"Erbium,Praseodymium,Cerium,Lutetium,Lanthanum,Ytterbium,Yttrium,Terbium,Thulium,Gadolinium,,,Holmium,Dysprosium,Europium,,Neoymium,,Samarium","Abyssal pegmatite REE,NYF pegmatite,Peralkaline igneous HFSE- REE,Simple pegmatite",-106.0378,36.48337,POINT (-106.0378000000000043 36.4833700000000007),188,GEO,https://mrdata.usgs.gov/mrds1067
https://minmod.isi.edu/resource/site__mrdata-usgs-gov-mrds__10304369,https://mrdata.usgs.gov/mrds,10304369,Brazil,Bahia,EPSG:4326,"",Albaca,"Samarium,Lanthanum,Holmium,Lutetium,Zirnium,Terbium,Europium,Ytterbium,Praseodymium,Thulium,Dysprosium,Yttrium,,Gadolinium,Cerium,Neoymium,Erbium","Fluvial placer REE,Heavy mineral sands,Paleoplacer heavy mineral sands",-39.33218,-17.49755,POINT (-39.3321800000000010 -17.4975500000000004),8,GEO,https://mrdata.usgs.gov/mrds1355
https://minmod.isi.edu/resource/site__mrdata-usgs-gov-mrds__10009502,https://mrdata.usgs.gov/mrds,10009502,United States,Alaska,EPSG:4326,"",Big,"Holmium,Cerium,Lanthanum,Gold,Lutetium,Terbium,Europium,Dysprosium,Gadolinium,Thulium,,,pper,Samarium,Praseodymium,Erbium,Yttrium,Ytterbium,Neoymium",Fluvial placer tungsten,-148.20328,67.5164,POINT (-148.2032800000000066 67.5164000000000044),84,GEO,https://mrdata.usgs.gov/mrds13
https://minmod.isi.edu/resource/site__mrdata-usgs-gov-mrds__10022758,https://mrdata.usgs.gov/mrds,10022758,United States,Idaho,EPSG:4326,"",2,"Cerium,Erbium,Yttrium,Neoymium,,Thulium,Terbium,,Lanthanum,Lutetium,Samarium,Praseodymium,Holmium,Ytterbium,,Europium,Iron,Zirnium,Dysprosium,Gadolinium","Fluvial placer niobium-tantalum,Skarn uranium- REE",-115.46785,44.27548,POINT (-115.4678499999999985 44.2754800000000017),319,GEO,https://mrdata.usgs.gov/mrds438
https://minmod.isi.edu/resource/site__mrdata-usgs-gov-mrds__10070475,https://mrdata.usgs.gov/mrds,10070475,United States,Montana,EPSG:4326,"",Snowbird,"Gadolinium,Thulium,Terbium,Praseodymium,Dysprosium,Neoymium,Lutetium,Ytterbium,Holmium, ,Cerium,Erbium,Europium,Lanthanum,Yttrium,Samarium",Vein fluorite,-114.77014,46.78405,POINT (-114.7701399999999978 46.7840500000000006),243,GEO,https://mrdata.usgs.gov/mrds252
https://minmod.isi.edu/resource/site__mrdata-usgs-gov-mrds__10185045,https://mrdata.usgs.gov/mrds,10185045,United States,Alaska,EPSG:4326,"",Tofty Gulch,"Terbium,Lanthanum,Samarium,,Silver,Lutetium,Dysprosium,Yttrium,Holmium,Neoymium,,Cerium,,Gold,Erbium,Praseodymium,Europium,Gadolinium,Thulium,Ytterbium",Shoreline placer gold,-150.89806,65.08291,POINT (-150.8980599999999868 65.0829099999999983),152,GEO,https://mrdata.usgs.gov/mrds348
https://minmod.isi.edu/resource/site__mrdata-usgs-gov-mrds__10232159,https://mrdata.usgs.gov/mrds,10232159,Australia,South Australia,EPSG:4326,Roxby Downs,Olympic Dam,"Samarium,Neoymium,pper,Dysprosium,Thulium,Ytterbium,Silver,,Praseodymium,Europium,Terbium,Lanthanum,Erbium,Yttrium,Lutetium,Gold,Gadolinium,Cerium,Holmium",Hematite- dominant IOCG,136.39885,-30.67952,POINT (136.3988500000000101 -30.6795200000000001),71,GEO,https://mrdata.usgs.gov/mrds737
https://minmod.isi.edu/resource/site__mrdata-usgs-gov-mrds__10078648,https://mrdata.usgs.gov/mrds,10078648,United States,South Carolina,EPSG:4326,"",Sarratt Monazite Placer,"Yttrium,Dysprosium,,Europium,,Cerium,Terbium,Erbium,Lanthanum,Holmium,Thulium,Praseodymium,Lutetium,Gadolinium,Gold,Samarium,Ytterbium,Neoymium",Fluvial placer REE,-81.69923,35.17261,POINT (-81.6992300000000000 35.1726099999999988),194,GEO,https://mrdata.usgs.gov/mrds1435
https://minmod.isi.edu/resource/site__mrdata-usgs-gov-mrds__10159565,https://mrdata.usgs.gov/mrds,10159565,United States,Idaho,EPSG:4326,"",Porter,"Neoymium,Europium,Dysprosium,Gadolinium,Ytterbium,Erbium,Praseodymium,Cerium,Yttrium,Thulium,Terbium,Samarium,Lutetium,Holmium,Lanthanum","Apatite intrusion REE,Fluvial placer REE",-115.47765,44.28098,POINT (-115.4776499999999970 44.2809799999999996),319,GEO,https://mrdata.usgs.gov/mrds81
https://minmod.isi.edu/resource/site__mrdata-usgs-gov-mrds__10096322,https://mrdata.usgs.gov/mrds,10096322,United States,Idaho,EPSG:4326,Van Dissel,Dome,",Dysprosium,Europium,Erbium,Gadolinium,,Lutetium,Samarium,Praseodymium,Neoymium,Lanthanum,Holmium,Terbium,Thulium,Cerium,Ytterbium,Yttrium",Simple pegmatite,-115.91456,44.03378,POINT (-115.9145599999999945 44.0337800000000001),293,GEO,https://mrdata.usgs.gov/mrds748
https://minmod.isi.edu/resource/site__mrdata-usgs-gov-mrds__10193390,https://mrdata.usgs.gov/mrds,10193390,United States,Illinois,EPSG:4326,"",Hicks Dome,"Cerium,Yttrium,Holmium,Lanthanum,Lutetium,Ytterbium,,Europium,Samarium,Praseodymium,,Terbium,Gadolinium,Neoymium, ,Erbium,Dysprosium,Thulium","Replacement fluorite,Vein fluorite",-88.36674,37.53337,POINT (-88.3667399999999930 37.5333699999999979),98,GEO,https://mrdata.usgs.gov/mrds1021
https://minmod.isi.edu/resource/site__mrdata-usgs-gov-mrds__10001464,https://mrdata.usgs.gov/mrds,10001464,United States,Alaska,EPSG:4326,"",Independence,"Holmium,Cerium,Praseodymium,Lanthanum,Dysprosium,Yttrium,Ytterbium,Gold,,Gadolinium,Thulium,Neoymium,Europium,Terbium,Erbium,Samarium,Lutetium,,","Fluvial placer REE,Fluvial placer gold",-145.21683,65.48556,POINT (-145.2168299999999874 65.4855600000000067),139,GEO,https://mrdata.usgs.gov/mrds830
https://minmod.isi.edu/resource/site__mrdata-usgs-gov-mrds__10071134,https://mrdata.usgs.gov/mrds,10071134,United States,Idaho,EPSG:4326,Taylor Diggings,Taylor Placer,"Thulium,Europium,Gadolinium,Cerium,,Neoymium,Gold,Lanthanum,Iron,Samarium,Praseodymium,Lutetium,Terbium,Holmium,Yttrium,Ytterbium,Dysprosium,Erbium,Zirnium","Fluvial placer REE,Fluvial placer garnet",-114.68513,44.25069,POINT (-114.6851300000000009 44.2506899999999987),311,GEO,https://mrdata.usgs.gov/mrds203
https://minmod.isi.edu/resource/site__mrdata-usgs-gov-mrds__10009103,https://mrdata.usgs.gov/mrds,10009103,United States,Arizona,EPSG:4326,"",White Cap Pegmatite,"Thulium,Dysprosium,Samarium,Lanthanum,Terbium,Lutetium,,Europium,Ytterbium,Erbium,Cerium,Praseodymium,Gadolinium,Holmium,Yttrium,Neoymium","Abyssal pegmatite REE,NYF pegmatite,Peralkaline igneous HFSE- REE",-113.96747,35.73334,POINT (-113.9674700000000058 35.7333399999999983),202,GEO,https://mrdata.usgs.gov/mrds569
https://minmod.isi.edu/resource/site__mrdata-usgs-gov-mrds__10236449,https://mrdata.usgs.gov/mrds,10236449,United States,California,EPSG:4326,Strassbaugh,Black Bow,"Europium,Samarium,Ytterbium,Lanthanum,Neoymium,Praseodymium,Cerium,Erbium,Thulium,Gadolinium,Lutetium,Holmium,Dysprosium,Yttrium,Terbium","Apatite intrusion REE,Fluvial placer REE,Ion adsorption REE,Ophiolite chromium,Unconformity- related REE",-119.41846,36.96384,POINT (-119.4184599999999961 36.9638399999999976),169,GEO,https://mrdata.usgs.gov/mrds1303
https://minmod.isi.edu/resource/site__mrdata-usgs-gov-mrds__10012295,https://mrdata.usgs.gov/mrds,10012295,United States,Colorado,EPSG:4326,"Iron Mine,Iron Hill Mine",Iron Mountain,"Dysprosium,Lanthanum,Samarium,Holmium,Yttrium,Terbium,Cerium,,pper,Ytterbium,Silver,Neoymium,Europium,Lutetium,Praseodymium,Erbium,Iron,Thulium,Gadolinium","Iron oxide poly- metallic,Porphyry copper- molybdenum",-105.37307,38.11807,POINT (-105.3730699999999985 38.1180700000000030),1734,GEO,https://mrdata.usgs.gov/mrds1641
https://minmod.isi.edu/resource/site__mrdata-usgs-gov-mrds__10017235,https://mrdata.usgs.gov/mrds,10017235,United States,Colorado,EPSG:4326,"",Three Muskateers,"Praseodymium,Cerium,,Ytterbium,Holmium,Gadolinium,,Europium,Terbium, ,Erbium,Lanthanum,Lutetium,Dysprosium,Neoymium,,Thulium,Yttrium,Samarium","Abyssal pegmatite REE,Simple pegmatite",-105.04323,39.28199,POINT (-105.0432299999999941 39.2819900000000004),267,GEO,https://mrdata.usgs.gov/mrds14
https://minmod.isi.edu/resource/site__mrdata-usgs-gov-mrds__10282329,https://mrdata.usgs.gov/mrds,10282329,United States,Alaska,EPSG:4326,"",Anaktuvuk River,"Neoymium,Praseodymium,Samarium,Gadolinium,Yttrium,Thulium,Cerium,,Dysprosium,,Terbium,Ytterbium,Lutetium,Holmium,Europium,Lanthanum,Erbium","Apatite intrusion REE,Apatite- nepheline- titanite intrusion,Phosphorite",-151.5868,68.27749,POINT (-151.5868000000000109 68.2774900000000002),128,GEO,https://mrdata.usgs.gov/mrds740
https://minmod.isi.edu/resource/site__mrdata-usgs-gov-mrds__10265537,https://mrdata.usgs.gov/mrds,10265537,United States,Idaho,EPSG:4326,"Fmc Lease,North Rasmussen Ridge,State Lease,Area 10-C,Area 12-C,Monsanto,Area 26-G,Area 9-B,Area 11-C,Area 8-B,West Limb",Enoch Valley,"Cerium, ,Gadolinium,Ytterbium,,Dysprosium,Yttrium,Erbium,,Neoymium,Europium,Thulium,Holmium,,Lanthanum,Lutetium,Praseodymium,Samarium,Terbium",Phosphorite,-111.41547,42.8868,POINT (-111.4154699999999991 42.8868000000000009),229,GEO,https://mrdata.usgs.gov/mrds194
https://minmod.isi.edu/resource/site__mrdata-usgs-gov-mrds__10126028,https://mrdata.usgs.gov/mrds,10126028,United States,New Mexico,EPSG:4326,"",M E No 13,"pper,Erbium,Holmium,Lanthanum,Europium,Cerium,Ytterbium,Dysprosium,Terbium,Lutetium,Yttrium,Neoymium,Praseodymium, ,Thulium,Gadolinium,Samarium","Apatite intrusion REE,Replacement fluorite,Vein fluorite",-105.77886,34.19229,POINT (-105.7788599999999946 34.1922899999999998),190,GEO,https://mrdata.usgs.gov/mrds832
https://minmod.isi.edu/resource/site__mrdata-usgs-gov-mrds__10050002,https://mrdata.usgs.gov/mrds,10050002,Mexico,Coahuila de Zaragoza,EPSG:4326,El Tres,Fatima,"Dysprosium,Samarium,Lutetium,Erbium,Thulium,Gadolinium,Lanthanum, ,Neoymium,Cerium,Europium,Ytterbium,Holmium,Yttrium,Terbium,Praseodymium,",Replacement fluorite,-102.51293,28.55026,POINT (-102.5129299999999972 28.5502600000000015),108,GEO,https://mrdata.usgs.gov/mrds171
https://minmod.isi.edu/resource/site__mrdata-usgs-gov-mrds__10013004,https://mrdata.usgs.gov/mrds,10013004,United States,New Mexico,EPSG:4326,"",Laughlin Peak,",Lutetium,Praseodymium,Dysprosium,Holmium,Lanthanum,Erbium,Samarium,,Ytterbium,Europium,Yttrium,Gadolinium,,Terbium,Thulium,Cerium,Neoymium","Apatite intrusion REE,Peralkaline igneous HFSE- REE",-104.23386,36.58894,POINT (-104.2338600000000071 36.5889400000000009),158,GEO,https://mrdata.usgs.gov/mrds635
https://minmod.isi.edu/resource/site__mrdata-usgs-gov-mrds__10146676,https://mrdata.usgs.gov/mrds,10146676,United States,Massachusetts,EPSG:4326,"","","Gold,Erbium,Samarium,Dysprosium,Terbium,Ytterbium,Silver,Europium,Lanthanum,Yttrium,Lutetium,Thulium,,Cerium,Praseodymium,Neoymium,Gadolinium,Holmium","Epizonal orogenic mercury,Ion adsorption REE",-70.87865,42.54747,POINT (-70.8786499999999933 42.5474699999999970),101,GEO,https://mrdata.usgs.gov/mrds169
https://minmod.isi.edu/resource/site__mrdata-usgs-gov-mrds__10096408,https://mrdata.usgs.gov/mrds,10096408,United States,Idaho,EPSG:4326,"",No,"Lanthanum,Gadolinium,Praseodymium,Yttrium,Terbium,Ytterbium,Thulium,Holmium,Cerium,Europium,Erbium,Lutetium,,Samarium,Neoymium,Dysprosium","Fluvial placer REE,Unconformity- related REE",-113.4559,44.97909,POINT (-113.4558999999999997 44.9790899999999993),268,GEO,https://mrdata.usgs.gov/mrds367
https://minmod.isi.edu/resource/site__mrdata-usgs-gov-mrds__10071271,https://mrdata.usgs.gov/mrds,10071271,United States,North Carolina,EPSG:4326,"",Cane Placer,"Thulium,Yttrium,Neoymium,Cerium,Praseodymium,Europium,Lutetium,Gold,Terbium,Dysprosium,Erbium,Ytterbium,Lanthanum,Holmium,Gadolinium,Samarium","Epizonal orogenic gold,Fluvial placer gold",-81.85401,35.5576,POINT (-81.8540100000000024 35.5576000000000008),213,GEO,https://mrdata.usgs.gov/mrds354
https://minmod.isi.edu/resource/site__mrdata-usgs-gov-mrds__60000812,https://mrdata.usgs.gov/mrds,60000812,China,"",EPSG:4326,"",Zhanjiang,"Thulium,Praseodymium,Holmium,Terbium,Dysprosium,Erbium,Lanthanum,Neoymium,Europium,Zirnium,Samarium,Ytterbium,Lutetium,Yttrium,Gadolinium,,,Cerium","Fluvial placer REE,Heavy mineral sands",110.38284,21.19954,POINT (110.3828400000000016 21.1995399999999989),89,GEO,https://mrdata.usgs.gov/mrds304
https://minmod.isi.edu/resource/site__mrdata-usgs-gov-mrds__10197922,https://mrdata.usgs.gov/mrds,10197922,United States,Nevada,EPSG:4326,"Curtis Nevada Mines,Plant,Inc",(Facility) United States Refinery,"Gold,Gadolinium,Ytterbium,Thulium,Cerium,Holmium,Yttrium,Praseodymium,Neoymium,,Terbium,Samarium,Lutetium,Europium,Erbium,,Silver,Dysprosium,Lanthanum","Apatite intrusion REE,Breccia pipe REE,Carbonatite REE,Unconformity- related REE",-119.7568,39.52709,POINT (-119.7567999999999984 39.5270900000000012),168,GEO,https://mrdata.usgs.gov/mrds379
https://minmod.isi.edu/resource/site__mrdata-usgs-gov-mrds__10038134,https://mrdata.usgs.gov/mrds,10038134,United States,North Carolina,EPSG:4326,"",T,"Yttrium,Cerium,Terbium,Lanthanum,Dysprosium,Gadolinium,Holmium,Ytterbium,Lutetium,Gold,Samarium,,Praseodymium,Thulium,Erbium,Neoymium,Europium","Fluvial placer PGE,Fluvial placer gold",-81.91873,35.4976,POINT (-81.9187299999999965 35.4975999999999985),227,GEO,https://mrdata.usgs.gov/mrds457
https://minmod.isi.edu/resource/site__mrdata-usgs-gov-mrds__10000497,https://mrdata.usgs.gov/mrds,10000497,United States,Alaska,EPSG:4326,"Carol Ann Prospect,L Prospects,Atom-Marietta Prospect,I,Ross-Adams Mine",Bokan Mountain,"Thulium,Terbium,,Lanthanum,Erbium,Gadolinium,Yttrium,Dysprosium,Cerium, ,Europium,Lutetium,,Neoymium,Ytterbium,Holmium,Praseodymium,,,Samarium","Albitite-hosted uranium,Peralkaline igneous HFSE- REE,Skarn uranium- REE",-132.14066,54.91084,POINT (-132.1406599999999969 54.9108400000000003),60,GEO,https://mrdata.usgs.gov/mrds918
https://minmod.isi.edu/resource/site__mrdata-usgs-gov-mrds__10013718,https://mrdata.usgs.gov/mrds,10013718,United States,Colorado,EPSG:4326,"",Shuttle Run,"Praseodymium,Yttrium,Holmium,Lutetium,Europium,Ytterbium,Neoymium,Samarium,Erbium,Dysprosium,,Thulium,Terbium,Gadolinium,,Lanthanum,Cerium",Abyssal pegmatite REE,-105.2003,39.37417,POINT (-105.2002999999999986 39.3741699999999994),266,GEO,https://mrdata.usgs.gov/mrds585
https://minmod.isi.edu/resource/site__mrdata-usgs-gov-mrds__10071459,https://mrdata.usgs.gov/mrds,10071459,United States,Idaho,EPSG:4326,"",Snowdrift,"Terbium,Thulium,Gadolinium,Lanthanum,Erbium,Europium,Lutetium,Silver,Holmium,,Neoymium,Dysprosium,Cerium,,Ytterbium,Samarium,Gold,Yttrium,Praseodymium","Albitite-hosted uranium,Coal/peat/bog uranium,Unconformity- related uranium",-114.23593,45.40989,POINT (-114.2359299999999962 45.4098899999999972),308,GEO,https://mrdata.usgs.gov/mrds217
https://minmod.isi.edu/resource/site__mrdata-usgs-gov-mrds__10216731,https://mrdata.usgs.gov/mrds,10216731,United States,Idaho,EPSG:4326,"Dry Canyon Prospect 1966,Caldwell Canyon Site",Caldwell Canyon Proposed,"Terbium,Cerium,Lanthanum,Dysprosium,Praseodymium,Thulium,Neoymium,Yttrium,,Holmium,,Gadolinium,,Ytterbium,Samarium,Europium, ,Lutetium,Erbium",Phosphorite,-111.3716,42.72742,POINT (-111.3716000000000008 42.7274200000000022),230,GEO,https://mrdata.usgs.gov/mrds839
https://minmod.isi.edu/resource/site__mrdata-usgs-gov-mrds__10238258,https://mrdata.usgs.gov/mrds,10238258,United States,California,EPSG:4326,"",Reynolds Robbins C,"Thulium,Cerium,Lutetium,Praseodymium,Neoymium,Gadolinium,Dysprosium,Holmium,Samarium,Terbium,Erbium,Europium,Lanthanum,Yttrium,Ytterbium","Apatite intrusion REE,Carbonatite laterite REE,Ion adsorption REE,Peralkaline igneous HFSE- REE,Unconformity- related REE",-115.51694,35.465,POINT (-115.5169400000000053 35.4650000000000034),172,GEO,https://mrdata.usgs.gov/mrds88
https://minmod.isi.edu/resource/site__mrdata-usgs-gov-mrds__10189315,https://mrdata.usgs.gov/mrds,10189315,United States,California,EPSG:4326,South Syenite Group,Esperanza,",Lutetium,Lanthanum,Thulium,Erbium,Neoymium,Gadolinium,Europium,Samarium,,Praseodymium,Ytterbium,Terbium,Dysprosium,Yttrium,Cerium,Holmium","Apatite intrusion REE,Breccia pipe REE,Carbonatite laterite REE,Peralkaline igneous HFSE- REE",-115.47944,35.38361,POINT (-115.4794399999999968 35.3836099999999973),172,GEO,https://mrdata.usgs.gov/mrds308
https://minmod.isi.edu/resource/site__mrdata-usgs-gov-mrds__10096404,https://mrdata.usgs.gov/mrds,10096404,United States,Idaho,EPSG:4326,"",No,"Cerium,Europium,Terbium,,Holmium,Praseodymium,Erbium,Neoymium,Gadolinium,Lutetium,Lanthanum,Dysprosium,Ytterbium,Yttrium,Samarium,Thulium","Abyssal pegmatite REE,Apatite intrusion REE,Fluvial placer REE,Unconformity- related REE",-113.492,44.89179,POINT (-113.4920000000000044 44.8917900000000003),268,GEO,https://mrdata.usgs.gov/mrds367
https://minmod.isi.edu/resource/site__mrdata-usgs-gov-mrds__10248292,https://mrdata.usgs.gov/mrds,10248292,United States,New York,EPSG:4326,"",Pilfershire,"Yttrium,Erbium,Neoymium,Europium,Iron,Dysprosium,Terbium,Ytterbium,Holmium,Samarium,Lutetium,Lanthanum,Praseodymium,Gadolinium,Cerium,Thulium","Apatite intrusion REE,Ion adsorption REE,Magnetite- dominant IOA",-73.48783,44.07497,POINT (-73.4878300000000024 44.0749700000000004),59,GEO,https://mrdata.usgs.gov/mrds1449
https://minmod.isi.edu/resource/site__mrdata-usgs-gov-mrds__10069826,https://mrdata.usgs.gov/mrds,10069826,United States,Idaho,EPSG:4326,"Lucky Seven Prospect,Scheller,Dougherty",Scheller,"Lanthanum,Neoymium,Thulium,Samarium,Terbium,Erbium,Dysprosium,Praseodymium,Europium,,Lutetium,Gadolinium,Yttrium,Holmium,,Ytterbium,Cerium","Abyssal pegmatite REE,Skarn uranium- REE,Unconformity- related REE",-116.41247,48.98067,POINT (-116.4124699999999990 48.9806700000000035),104,GEO,https://mrdata.usgs.gov/mrds247
https://minmod.isi.edu/resource/site__mrdata-usgs-gov-mrds__10071266,https://mrdata.usgs.gov/mrds,10071266,United States,North Carolina,EPSG:4326,"",Hall Placer,"Praseodymium,Europium,Cerium,Gadolinium,Erbium,Neoymium,Ytterbium,Terbium,Thulium,Gold,Lanthanum,Lutetium,Yttrium,Samarium,Holmium,Dysprosium",Fluvial placer REE,-81.8129,35.64788,POINT (-81.8128999999999991 35.6478800000000007),220,GEO,https://mrdata.usgs.gov/mrds781
https://minmod.isi.edu/resource/site__mrdata-usgs-gov-mrds__10087848,https://mrdata.usgs.gov/mrds,10087848,United States,Colorado,EPSG:4326,"",Watson Park Quarry,",Holmium,Lutetium,Ytterbium,Praseodymium,Lanthanum,Gadolinium,Yttrium,Dysprosium,Cerium,Europium,Samarium,,Terbium,Erbium,Neoymium,Thulium","NYF pegmatite,Simple pegmatite",-105.06974,39.22861,POINT (-105.0697399999999959 39.2286100000000033),267,GEO,https://mrdata.usgs.gov/mrds67
https://minmod.isi.edu/resource/site__mrdata-usgs-gov-mrds__10265480,https://mrdata.usgs.gov/mrds,10265480,United States,Idaho,EPSG:4326,"",Bench Placer,"Lutetium,Samarium,Neoymium,,Yttrium,,Gadolinium,Dysprosium,Thulium,Europium,Lanthanum,Cerium,Erbium,Holmium,Terbium,Ytterbium,Praseodymium",Fluvial placer niobium-tantalum,-115.23455,44.30798,POINT (-115.2345499999999987 44.3079800000000006),322,GEO,https://mrdata.usgs.gov/mrds244
https://minmod.isi.edu/resource/site__mrdata-usgs-gov-mrds__10009505,https://mrdata.usgs.gov/mrds,10009505,United States,Alaska,EPSG:4326,"",Boulder,"Praseodymium,,Dysprosium,Gadolinium,,Yttrium,Lutetium,Ytterbium,Holmium,Samarium,,Neoymium,Cerium,Thulium,Erbium,Europium,Lanthanum,,Terbium","Fluvial placer REE,Fluvial placer niobium-tantalum,Fluvial placer tungsten",-167.98676,65.61592,POINT (-167.9867600000000039 65.6159200000000027),29,GEO,https://mrdata.usgs.gov/mrds547
https://minmod.isi.edu/resource/site__mrdata-usgs-gov-mrds__10107554,https://mrdata.usgs.gov/mrds,10107554,United States,Alaska,EPSG:4326,"",Livengood Placer,",Gadolinium,,Terbium,Praseodymium,,Gold,Lanthanum,Thulium,Ytterbium,Europium,,Lutetium,Cerium,Dysprosium,Yttrium,Erbium,Samarium,Holmium,Neoymium","Fluvial placer gold,Shoreline placer gold",-148.54471,65.52467,POINT (-148.5447100000000091 65.5246700000000004),113,GEO,https://mrdata.usgs.gov/mrds736
https://minmod.isi.edu/resource/site__mrdata-usgs-gov-mrds__10014421,https://mrdata.usgs.gov/mrds,10014421,United States,Colorado,EPSG:4326,"",Red Rock,"Dysprosium,Ytterbium,Neoymium,Gadolinium,,pper,Lanthanum,Lutetium,Holmium,Cerium,Yttrium,Europium,Erbium,Terbium,Thulium,Samarium,Praseodymium,,","Apatite intrusion REE,Carbonatite REE,Carbonatite niobium,Peralkaline igneous HFSE- REE",-107.06701,38.3425,POINT (-107.0670099999999962 38.3425000000000011),212,GEO,https://mrdata.usgs.gov/mrds409
https://minmod.isi.edu/resource/site__mrdata-usgs-gov-mrds__10280823,https://mrdata.usgs.gov/mrds,10280823,Australia,Western Australia,EPSG:4326,"",Mt,"Samarium,Dysprosium,Holmium,Yttrium,Gadolinium,Erbium,Neoymium,Europium,Lanthanum,Cerium,Praseodymium,Lutetium,Thulium,Ytterbium,Terbium","Carbonatite laterite REE,Ion adsorption REE",122.43249,-28.84619,POINT (122.4324900000000014 -28.8461900000000000),34,GEO,https://mrdata.usgs.gov/mrds915
https://minmod.isi.edu/resource/site__mrdata-usgs-gov-mrds__10016032,https://mrdata.usgs.gov/mrds,10016032,United States,Colorado,EPSG:4326,Windsor,Grover,"Dysprosium,Gadolinium,,Neoymium,Holmium,Lanthanum,Terbium,Thulium,Lutetium,,Erbium,,Europium,,Cerium,Ytterbium,Yttrium,Praseodymium,Samarium","Abyssal pegmatite REE,NYF pegmatite",-105.45191,39.71425,POINT (-105.4519099999999980 39.7142499999999998),253,GEO,https://mrdata.usgs.gov/mrds147
https://minmod.isi.edu/resource/site__mrdata-usgs-gov-mrds__10024947,https://mrdata.usgs.gov/mrds,10024947,Australia,Western Australia,EPSG:4326,"",Norton,"Dysprosium,, ,Zirnium,Yttrium,,Samarium,Praseodymium,Ytterbium,,Thulium,Holmium,Gadolinium,Terbium,Lutetium,Cerium,,Lanthanum,Erbium,Neoymium,Europium","Heavy mineral sands,Paleoplacer heavy mineral sands",115.54933,-33.52097,POINT (115.5493299999999977 -33.5209699999999984),92,GEO,https://mrdata.usgs.gov/mrds89
https://minmod.isi.edu/resource/site__mrdata-usgs-gov-mrds__10182847,https://mrdata.usgs.gov/mrds,10182847,Brazil,"",EPSG:4326,"",Boa Vista,"Samarium,Dysprosium,Gadolinium,Yttrium,Terbium,Ytterbium,Holmium,Neoymium,Cerium,Lanthanum,Praseodymium,Lutetium,,Europium,Thulium,Erbium","Abyssal pegmatite REE,Apatite intrusion REE,Fluvial placer REE,Peralkaline igneous HFSE- REE",-39.88218,-18.73081,POINT (-39.8821799999999982 -18.7308100000000017),14,GEO,https://mrdata.usgs.gov/mrds94
https://minmod.isi.edu/resource/site__mrdata-usgs-gov-mrds__10101853,https://mrdata.usgs.gov/mrds,10101853,United States,Colorado,EPSG:4326,"",Mayesville,"Gadolinium,Samarium,pper,Praseodymium,,,,Erbium,Thulium,Ytterbium,Cerium,Silver,,Dysprosium,,Terbium,Holmium,,Gold,Yttrium,Europium,Neoymium,Lutetium,Lanthanum","Abyssal pegmatite REE,NYF pegmatite,Simple pegmatite",-105.62977,40.69387,POINT (-105.6297699999999935 40.6938699999999969),237,GEO,https://mrdata.usgs.gov/mrds190
https://minmod.isi.edu/resource/site__mrdata-usgs-gov-mrds__10087974,https://mrdata.usgs.gov/mrds,10087974,United States,Colorado,EPSG:4326,"",Unnamed,"pper,Lutetium,Yttrium,Praseodymium,Neoymium,Erbium,Thulium,Europium,,Cerium,Samarium,,Lanthanum,Holmium,Terbium,Gadolinium,Ytterbium,Dysprosium,","Apatite intrusion REE,Peralkaline igneous HFSE- REE",-107.09229,38.23139,POINT (-107.0922900000000055 38.2313899999999975),212,GEO,https://mrdata.usgs.gov/mrds111
https://minmod.isi.edu/resource/site__mrdata-usgs-gov-mrds__10071246,https://mrdata.usgs.gov/mrds,10071246,United States,Idaho,EPSG:4326,"",Bar Placer,"Holmium,Zirnium,Erbium,,Thulium,Iron,Yttrium,Gadolinium,Samarium,Praseodymium,Terbium,Ytterbium,Cerium,Gold,Lanthanum,Lutetium,Dysprosium,Neoymium,Europium","Fluvial placer REE,Fluvial placer garnet,Fluvial placer niobium-tantalum",-114.54782,44.25299,POINT (-114.5478200000000015 44.2529899999999969),311,GEO,https://mrdata.usgs.gov/mrds1412
https://minmod.isi.edu/resource/site__mrdata-usgs-gov-mrds__10071269,https://mrdata.usgs.gov/mrds,10071269,United States,North Carolina,EPSG:4326,"",Bailey Fork Placer,"Yttrium,Erbium,Dysprosium,Cerium,Gold,Thulium,Samarium,Terbium,Lanthanum,Gadolinium,Ytterbium,Holmium,Lutetium,Praseodymium,Neoymium,Europium","Fluvial placer REE,Fluvial placer gold",-81.71372,35.67566,POINT (-81.7137199999999950 35.6756600000000006),220,GEO,https://mrdata.usgs.gov/mrds200
https://minmod.isi.edu/resource/site__mrdata-usgs-gov-mrds__10271710,https://mrdata.usgs.gov/mrds,10271710,United States,New Mexico,EPSG:4326,"",Three J,"Samarium,Yttrium,Erbium,Lutetium,Dysprosium,Neoymium,Holmium,Terbium,Silver,Gadolinium,Cerium,Ytterbium,Lanthanum,Praseodymium,Thulium,Gold,Europium","Breccia pipe REE,Peralkaline igneous HFSE- REE",-108.54232,32.51682,POINT (-108.5423200000000037 32.5168200000000027),183,GEO,https://mrdata.usgs.gov/mrds306
https://minmod.isi.edu/resource/site__mrdata-usgs-gov-mrds__10141434,https://mrdata.usgs.gov/mrds,10141434,United States,Colorado,EPSG:4326,"",Rusty Gold Cerite,"Praseodymium,Cerium,Lutetium,Europium,Gadolinium,Yttrium,Terbium,Holmium,Dysprosium,Neoymium,Lanthanum,Thulium,Ytterbium,Erbium,Samarium","Apatite intrusion REE,Carbonatite REE",-105.3657,40.13642,POINT (-105.3657000000000039 40.1364200000000011),241,GEO,https://mrdata.usgs.gov/mrds620
https://minmod.isi.edu/resource/site__mrdata-usgs-gov-mrds__10190561,https://mrdata.usgs.gov/mrds,10190561,United States,Colorado,EPSG:4326,"",Black Hope No One,"Lutetium,Lanthanum,Cerium,Thulium,Terbium,Gadolinium,Samarium,Dysprosium,Holmium,Erbium,Praseodymium,Europium,Ytterbium,Neoymium,Yttrium","Apatite intrusion REE,Carbonatite REE",-105.38809,40.11608,POINT (-105.3880900000000054 40.1160799999999966),241,GEO,https://mrdata.usgs.gov/mrds1515
https://minmod.isi.edu/resource/site__mrdata-usgs-gov-mrds__10143663,https://mrdata.usgs.gov/mrds,10143663,United States,Idaho,EPSG:4326,"24,1,23,52 Johnson Creek,Lower Valley,2,Area F,3,Area E,25,Area A,Dry Valley,West Limb Schmid Syncline",North Schmid Ridge,"Lutetium,Thulium,,Erbium,Yttrium,Samarium,Gadolinium,Lanthanum,,Ytterbium,Cerium,,Terbium,Praseodymium,Dysprosium,Europium,Neoymium, ,Holmium",Phosphorite,-111.3847,42.76822,POINT (-111.3846999999999952 42.7682199999999995),230,GEO,https://mrdata.usgs.gov/mrds113
https://minmod.isi.edu/resource/site__mrdata-usgs-gov-mrds__10110445,https://mrdata.usgs.gov/mrds,10110445,United States,North Carolina,EPSG:4326,"",Double Branch Placer,"Europium,Cerium,Neoymium,Holmium,Samarium,Thulium,Dysprosium,Ytterbium,Erbium,Gadolinium,Lanthanum,Yttrium,Gold,Praseodymium,Terbium,Lutetium",Fluvial placer REE,-81.74427,35.66371,POINT (-81.7442700000000002 35.6637100000000018),220,GEO,https://mrdata.usgs.gov/mrds1322
https://minmod.isi.edu/resource/site__mrdata-usgs-gov-mrds__10071542,https://mrdata.usgs.gov/mrds,10071542,United States,Idaho,EPSG:4326,"",Smith Placers,"Ytterbium,Gold,Dysprosium,Erbium,,Cerium,Yttrium,Holmium,Gadolinium,Lutetium,Thulium,Praseodymium,Neoymium,Europium,Terbium,Lanthanum,Silver,Samarium","Fluvial placer REE,Fluvial placer gold,Shoreline placer gold",-115.69068,45.25737,POINT (-115.6906800000000004 45.2573700000000017),300,GEO,https://mrdata.usgs.gov/mrds35
https://minmod.isi.edu/resource/site__mrdata-usgs-gov-mrds__10041757,https://mrdata.usgs.gov/mrds,10041757,United States,Utah,EPSG:4326,"",Arthur Fork,"Lanthanum,Erbium,Yttrium,Neoymium,Europium,Terbium,,Thulium,Cerium,Holmium,Lutetium,Dysprosium,Praseodymium,Samarium,Ytterbium,,Gadolinium","Abyssal pegmatite REE,Ion adsorption REE,Unconformity- related REE",-111.75718,40.93577,POINT (-111.7571800000000053 40.9357699999999980),179,GEO,https://mrdata.usgs.gov/mrds1368
https://minmod.isi.edu/resource/site__mrdata-usgs-gov-mrds__10014571,https://mrdata.usgs.gov/mrds,10014571,United States,Colorado,EPSG:4326,"",Unnamed,",Cerium,,Thulium,pper,Lutetium,Europium,Praseodymium,Gadolinium,Dysprosium,Holmium,,Erbium,Neoymium,Ytterbium,Terbium,Lanthanum,Samarium,Yttrium","Apatite intrusion REE,Carbonatite REE,Peralkaline igneous HFSE- REE",-107.06062,38.21139,POINT (-107.0606200000000001 38.2113900000000015),212,GEO,https://mrdata.usgs.gov/mrds111
https://minmod.isi.edu/resource/site__mrdata-usgs-gov-mrds__60000391,https://mrdata.usgs.gov/mrds,60000391,United States,Colorado,EPSG:4326,"",White Earth,",,Erbium,Holmium,Dysprosium,,,Europium,Thulium,Gadolinium,Samarium,,Neoymium,Lutetium,Terbium,Cerium,Lanthanum,Yttrium,Praseodymium,,,Ytterbium,,Iron","Carbonatite niobium,Peralkaline igneous HFSE- REE",-107.05342,38.255,POINT (-107.0534200000000027 38.2550000000000026),212,GEO,https://mrdata.usgs.gov/mrds1286
https://minmod.isi.edu/resource/site__mrdata-usgs-gov-mrds__10093556,https://mrdata.usgs.gov/mrds,10093556,United States,Idaho,EPSG:4326,"",Martin Placer,"Terbium,Thulium,Holmium,Neoymium,Cerium,Dysprosium,,Ytterbium,Europium,Gadolinium,,,Lutetium,Samarium,Erbium,Praseodymium,Yttrium,Lanthanum",Fluvial placer REE,-114.72873,44.13519,POINT (-114.7287299999999988 44.1351900000000015),313,GEO,https://mrdata.usgs.gov/mrds134
https://minmod.isi.edu/resource/site__mrdata-usgs-gov-mrds__10009114,https://mrdata.usgs.gov/mrds,10009114,United States,California,EPSG:4326,"",Pomona Tile Quarry,"Yttrium,Samarium,Holmium,Dysprosium,Cerium,Terbium,Neoymium,Lanthanum,Praseodymium,Thulium,Gadolinium,Erbium,Europium,,,,Lutetium,Ytterbium","Abyssal pegmatite REE,LCT pegmatite,NYF pegmatite,Peralkaline igneous HFSE- REE",-115.55083,34.33336,POINT (-115.5508300000000048 34.3333599999999990),171,GEO,https://mrdata.usgs.gov/mrds1082
https://minmod.isi.edu/resource/site__mrdata-usgs-gov-mrds__10183295,https://mrdata.usgs.gov/mrds,10183295,Australia,South Australia,EPSG:4326,"",Port Pirie Reo,"Cerium,Lanthanum,Holmium,Yttrium,Erbium,Europium,Terbium,Praseodymium,Samarium,Lutetium,Dysprosium,Gadolinium,Thulium,Ytterbium,Neoymium","Ion adsorption REE,Unconformity- related REE",138.49877,-33.09616,POINT (138.4987700000000075 -33.0961599999999976),83,GEO,https://mrdata.usgs.gov/mrds487
https://minmod.isi.edu/resource/site__mrdata-usgs-gov-mrds__10094563,https://mrdata.usgs.gov/mrds,10094563,United States,Montana,EPSG:4326,"",Unidentified,"Erbium,Yttrium,,Praseodymium,,Lutetium,Cerium,Thulium,Neoymium,Gadolinium,Samarium,Europium,Dysprosium,Terbium,Ytterbium,Lanthanum,Holmium",Apatite intrusion REE,-113.15759,46.47878,POINT (-113.1575899999999990 46.4787800000000004),273,GEO,https://mrdata.usgs.gov/mrds46
https://minmod.isi.edu/resource/site__mrdata-usgs-gov-mrds__10143778,https://mrdata.usgs.gov/mrds,10143778,United States,Idaho,EPSG:4326,"Wawa,T,Old Outcrop,Hall Mountain Thorium Group,Golden Sceptre,Berringer,Pyrite Zone,Barringer Prospect,The Man Upstairs,Hall Mountain Group,Group,M,U,TMU,Hall Mtn,Hall Mountain Thorite",Hall Mountain,"pper,Samarium,Holmium,Thulium,Gadolinium,Cerium,Dysprosium,Ytterbium,Europium,Lanthanum,Erbium,Yttrium,Lutetium,,,Praseodymium,Terbium,Neoymium","",-116.41887,48.98584,POINT (-116.4188699999999983 48.9858400000000032),104,GEO,https://mrdata.usgs.gov/mrds581
https://minmod.isi.edu/resource/site__mrdata-usgs-gov-mrds__10111308,https://mrdata.usgs.gov/mrds,10111308,United States,Alaska,EPSG:4326,"",Kahiltna River,",Gadolinium,Samarium,,Terbium,,Erbium,,Europium,Holmium,Dysprosium,,Praseodymium,,Ytterbium,Gold,Zirnium,Cerium,Thulium,Neoymium,Lanthanum,Lutetium,Yttrium","Fluvial placer REE,Fluvial placer gold,Heavy mineral sands",-150.75274,61.98953,POINT (-150.7527399999999886 61.9895300000000020),115,GEO,https://mrdata.usgs.gov/mrds572
https://minmod.isi.edu/resource/site__mrdata-usgs-gov-mrds__60000847,https://mrdata.usgs.gov/mrds,60000847,New Zealand,"",EPSG:4326,Twelve Mile Beach Deposit,Barrytown,"Zirnium,Yttrium,Praseodymium,Gold,Samarium,Terbium,Erbium,Thulium,,Dysprosium,Gadolinium,Lutetium,Ytterbium,Lanthanum,,Cerium,Europium,Holmium,Neoymium",Heavy mineral sands,171.3148,-42.2298,POINT (171.3147999999999911 -42.2297999999999973),12,GEO,https://mrdata.usgs.gov/mrds419
https://minmod.isi.edu/resource/site__mrdata-usgs-gov-mrds__10143808,https://mrdata.usgs.gov/mrds,10143808,United States,Idaho,EPSG:4326,"Area A,N,Soda Springs NE,Trail Canyon,Woodal Mountain",nda,"Lutetium,,Gadolinium,Cerium, ,Lanthanum,Samarium,Thulium,Erbium,Holmium,Neoymium,Yttrium,Terbium,Praseodymium,Europium,Ytterbium,Dysprosium,,",Phosphorite,-111.52641,42.72712,POINT (-111.5264099999999985 42.7271199999999993),215,GEO,https://mrdata.usgs.gov/mrds814
https://minmod.isi.edu/resource/site__mrdata-usgs-gov-mrds__10070500,https://mrdata.usgs.gov/mrds,10070500,United States,Idaho,EPSG:4326,"",Garden Placer,"Holmium,Terbium,Lanthanum,Yttrium,Samarium,Neoymium,Ytterbium,Erbium,Lutetium,Iron,Praseodymium,Zirnium,Dysprosium,Gadolinium,Gold,Thulium,Cerium,Europium","Fluvial placer REE,Fluvial placer niobium-tantalum",-114.40704,45.31178,POINT (-114.4070399999999950 45.3117799999999988),289,GEO,https://mrdata.usgs.gov/mrds1231
https://minmod.isi.edu/resource/site__mrdata-usgs-gov-mrds__10101833,https://mrdata.usgs.gov/mrds,10101833,United States,Colorado,EPSG:4326,"",Homestake,"Gadolinium,,Ytterbium,Holmium,Europium,Terbium,,Cerium,Samarium,,Praseodymium,Lutetium,Dysprosium,Yttrium,Lanthanum,Neoymium,Erbium,Thulium",Simple pegmatite,-105.9567,38.62694,POINT (-105.9566999999999979 38.6269399999999976),231,GEO,https://mrdata.usgs.gov/mrds417
https://minmod.isi.edu/resource/site__mrdata-usgs-gov-mrds__10110349,https://mrdata.usgs.gov/mrds,10110349,United States,Idaho,EPSG:4326,"",Heavy ral Placer,"Gadolinium,Terbium,Yttrium,Zirnium,Cerium,Ytterbium,Erbium,Lanthanum,,Lutetium,Europium,Thulium,,,Gold,Dysprosium,Samarium,Praseodymium,Holmium,Neoymium","Fluvial placer REE,Heavy mineral sands,Peralkaline igneous HFSE- REE",-116.00097,44.99988,POINT (-116.0009699999999953 44.9998799999999974),291,GEO,https://mrdata.usgs.gov/mrds1547
https://minmod.isi.edu/resource/site__mrdata-usgs-gov-mrds__10017497,https://mrdata.usgs.gov/mrds,10017497,United States,Colorado,EPSG:4326,"",Unknown,"Lutetium,Samarium,Europium,Yttrium,Lanthanum,Neoymium,Holmium,Erbium,Praseodymium,Cerium,Dysprosium,Gadolinium,Thulium,Ytterbium,Terbium","Apatite intrusion REE,Ion adsorption REE,Peralkaline igneous HFSE- REE",-105.00863,38.75973,POINT (-105.0086299999999966 38.7597299999999976),235,GEO,https://mrdata.usgs.gov/mrds79
https://minmod.isi.edu/resource/site__mrdata-usgs-gov-mrds__10078669,https://mrdata.usgs.gov/mrds,10078669,United States,North Carolina,EPSG:4326,"",Carroll Gold Placer,"Erbium,Gold,Holmium,Dysprosium,Lutetium,Praseodymium,Lanthanum,Yttrium,Neoymium,Thulium,Europium,Ytterbium,,Samarium,Gadolinium,Terbium,,Cerium","Fluvial placer REE,Fluvial placer niobium-tantalum",-81.73816,35.88981,POINT (-81.7381599999999935 35.8898099999999971),222,GEO,https://mrdata.usgs.gov/mrds311
https://minmod.isi.edu/resource/site__mrdata-usgs-gov-mrds__10286892,https://mrdata.usgs.gov/mrds,10286892,United States,California,EPSG:4326,"",Unnamed,"Neoymium,Holmium,Ytterbium,Lutetium,Lanthanum,Dysprosium,Praseodymium,Erbium,Samarium,Europium,Thulium,Terbium,Yttrium,Cerium,Gadolinium","Apatite intrusion REE,Breccia pipe REE,Carbonatite laterite REE,Peralkaline igneous HFSE- REE",-115.48864,35.44251,POINT (-115.4886400000000037 35.4425099999999986),172,GEO,https://mrdata.usgs.gov/mrds111
https://minmod.isi.edu/resource/site__mrdata-usgs-gov-mrds__10136482,https://mrdata.usgs.gov/mrds,10136482,United States,Alaska,EPSG:4326,"Pier Zero,1,3,Discovery,The Big Chief,The Lake View,Gh,The Triangle,The Edie M,William Moses,2,The Dodo,The Lightning Assoc,Nile Temple,Short Pier,Calida,Treasure Myne 1-19",Lower Portage,"Terbium,,Ytterbium,Praseodymium,Gold,Erbium,,Neoymium,Lanthanum,pper,Lutetium,Yttrium,Cerium,Holmium,Samarium,,Europium,Gadolinium,Dysprosium,,Thulium","",-144.60981,65.46144,POINT (-144.6098100000000102 65.4614399999999961),124,GEO,https://mrdata.usgs.gov/mrds52
https://minmod.isi.edu/resource/site__mrdata-usgs-gov-mrds__10288244,https://mrdata.usgs.gov/mrds,10288244,United States,Colorado,EPSG:4326,"",met,"Thulium,Cerium,Gadolinium,Neoymium,Europium,,Dysprosium,Samarium,Lanthanum,Erbium,Terbium,Praseodymium,Holmium,Ytterbium,Lutetium,Yttrium","Apatite intrusion REE,Peralkaline igneous HFSE- REE",-106.73202,38.96389,POINT (-106.7320200000000057 38.9638899999999992),206,GEO,https://mrdata.usgs.gov/mrds678
https://minmod.isi.edu/resource/site__mrdata-usgs-gov-mrds__10304094,https://mrdata.usgs.gov/mrds,10304094,India,"",EPSG:4326,Chatrapur Deposit,Orissa Chatrapur,"Lanthanum,Ytterbium,Terbium,Cerium,Neoymium,Samarium,Praseodymium,Zirnium,Erbium,Lutetium,Yttrium,Europium,,Gadolinium,Thulium,Dysprosium,Holmium","Heavy mineral sands,Paleoplacer heavy mineral sands",84.95021,19.29969,POINT (84.9502099999999984 19.2996899999999982),24,GEO,https://mrdata.usgs.gov/mrds144
https://minmod.isi.edu/resource/site__mrdata-usgs-gov-mrds__10222379,https://mrdata.usgs.gov/mrds,10222379,United States,Nevada,EPSG:4326,"",Quinn River,"Erbium,Samarium,Praseodymium,Lutetium,Europium,Gadolinium,Neoymium,Cerium,Thulium,Ytterbium,Dysprosium,Yttrium,Lanthanum,Terbium,Holmium","Apatite intrusion REE,Breccia pipe REE,Ion adsorption REE,Unconformity- related REE",-118.4799,41.41178,POINT (-118.4799000000000007 41.4117800000000003),166,GEO,https://mrdata.usgs.gov/mrds435
https://minmod.isi.edu/resource/site__mrdata-usgs-gov-mrds__10091376,https://mrdata.usgs.gov/mrds,10091376,United States,Colorado,EPSG:4326,"",Unknown,"Europium,Lutetium,Dysprosium,Cerium,Ytterbium,Praseodymium,Lanthanum,Thulium,Holmium,Yttrium,Erbium,Terbium,Gadolinium,Samarium,Neoymium","Abyssal pegmatite REE,Apatite intrusion REE,Ion adsorption REE,Peralkaline igneous HFSE- REE",-104.93163,38.78936,POINT (-104.9316299999999984 38.7893600000000021),235,GEO,https://mrdata.usgs.gov/mrds79
https://minmod.isi.edu/resource/site__mrdata-usgs-gov-mrds__10022760,https://mrdata.usgs.gov/mrds,10022760,United States,Idaho,EPSG:4326,"",Samarskite,"Lutetium,Erbium,Samarium,Europium,Terbium,Zirnium,Thulium,,Yttrium,Cerium,Lanthanum,Praseodymium,Dysprosium,Gadolinium,Ytterbium,,Holmium,,Iron,Neoymium","Fluvial placer niobium-tantalum,Peralkaline igneous HFSE- REE",-115.46345,44.27488,POINT (-115.4634499999999946 44.2748800000000031),319,GEO,https://mrdata.usgs.gov/mrds670
https://minmod.isi.edu/resource/site__mrdata-usgs-gov-mrds__10009519,https://mrdata.usgs.gov/mrds,10009519,United States,Alaska,EPSG:4326,"",Tuttle,"Gadolinium,Lanthanum,Thulium,,Yttrium,Ytterbium,Dysprosium,Holmium,Lutetium,,Cerium,,Erbium,Praseodymium,Samarium,Europium,Gold,Terbium,Neoymium",Fluvial placer tungsten,-166.20346,65.93263,POINT (-166.2034600000000069 65.9326300000000032),28,GEO,https://mrdata.usgs.gov/mrds701
https://minmod.isi.edu/resource/site__mrdata-usgs-gov-mrds__10071244,https://mrdata.usgs.gov/mrds,10071244,United States,Idaho,EPSG:4326,"",Treon Bar Placer,"Neoymium,Zirnium,Praseodymium,Europium,Lutetium,Terbium,Samarium,Erbium,Dysprosium,Cerium,Iron,,Holmium,Gold,Lanthanum,Yttrium,Gadolinium,Thulium,Ytterbium","Fluvial placer REE,Paleoplacer heavy mineral sands",-114.63513,44.25239,POINT (-114.6351300000000037 44.2523899999999983),311,GEO,https://mrdata.usgs.gov/mrds1223
https://minmod.isi.edu/resource/site__mrdata-usgs-gov-mrds__10151463,https://mrdata.usgs.gov/mrds,10151463,United States,New York,EPSG:4326,"Upper Works Ore Body,Harmony Bed,Miller Pit,Old Bed,21-Joker Bonanza,Adirondack Ore Mines,New Bed",Adirondack Ore,"Dysprosium,Erbium,Iron,Gadolinium,Lutetium,Samarium,,Thulium,Praseodymium,Ytterbium,Yttrium,Europium,Holmium,Cerium,Neoymium,Terbium,Lanthanum",Magnetite- dominant IOA,-73.46013,44.06027,POINT (-73.4601300000000066 44.0602700000000027),59,GEO,https://mrdata.usgs.gov/mrds510
https://minmod.isi.edu/resource/site__mrdata-usgs-gov-mrds__10018146,https://mrdata.usgs.gov/mrds,10018146,United States,Colorado,EPSG:4326,"",Unidentified Monazite,"Terbium,Thulium,Europium,Holmium,Gadolinium,Neoymium,Samarium,Yttrium,Ytterbium,Cerium,Praseodymium,Dysprosium,,Lutetium,Erbium,Lanthanum",Peralkaline igneous HFSE- REE,-105.98866,38.79083,POINT (-105.9886599999999959 38.7908299999999997),232,GEO,https://mrdata.usgs.gov/mrds1111
https://minmod.isi.edu/resource/site__mrdata-usgs-gov-mrds__10237919,https://mrdata.usgs.gov/mrds,10237919,United States,California,EPSG:4326,"",Reynolds Robbins A,"Erbium,Europium,Lutetium,Holmium,Lanthanum,Thulium,Dysprosium,Yttrium,Samarium,Neoymium,Praseodymium,Terbium,Gadolinium,Ytterbium,Cerium","Apatite intrusion REE,Carbonatite laterite REE,Peralkaline igneous HFSE- REE",-115.51894,35.4706,POINT (-115.5189400000000006 35.4705999999999975),172,GEO,https://mrdata.usgs.gov/mrds88
https://minmod.isi.edu/resource/site__mrdata-usgs-gov-mrds__10174438,https://mrdata.usgs.gov/mrds,10174438,United States,New Mexico,EPSG:4326,"",Alpha,"Neoymium,Cerium,Holmium,Europium,Lanthanum,Lutetium,Dysprosium,Praseodymium,Samarium,Gadolinium,Terbium,Yttrium,Ytterbium,Thulium,Erbium","Apatite intrusion REE,Peralkaline igneous HFSE- REE",-106.47138,35.03317,POINT (-106.4713799999999964 35.0331699999999984),1721,GEO,https://mrdata.usgs.gov/mrds1628
https://minmod.isi.edu/resource/site__mrdata-usgs-gov-mrds__10096362,https://mrdata.usgs.gov/mrds,10096362,United States,Idaho,EPSG:4326,"Roberts,Claims","","Europium,Cerium,Ytterbium,Holmium,Lanthanum,Neoymium,Samarium,Gadolinium,Thulium,Dysprosium,,Erbium,Praseodymium,Terbium,pper,Yttrium,,Lutetium,","Apatite intrusion REE,Ion adsorption REE,Unconformity- related REE",-114.2186,45.4144,POINT (-114.2185999999999950 45.4144000000000005),308,GEO,https://mrdata.usgs.gov/mrds169
https://minmod.isi.edu/resource/site__mrdata-usgs-gov-mrds__10282562,https://mrdata.usgs.gov/mrds,10282562,United States,Alaska,EPSG:4326,"William Henry Bay Radioactives,Lucky Six Group,Endicott",William Henry Bay,"Dysprosium,Gadolinium,Cerium,Europium,Lanthanum,Lutetium,,Holmium,Ytterbium,Yttrium,Erbium,Praseodymium,Terbium,,Thulium,Samarium,Neoymium","Peralkaline igneous HFSE- REE,Skarn uranium- REE",-135.25766,58.75804,POINT (-135.2576599999999871 58.7580400000000012),102,GEO,https://mrdata.usgs.gov/mrds83
https://minmod.isi.edu/resource/site__mrdata-usgs-gov-mrds__10160069,https://mrdata.usgs.gov/mrds,10160069,United States,Alaska,EPSG:4326,"Red Fox 2-5,C,W Claim",Half Dollar,"Samarium,Gadolinium,Praseodymium,,Terbium,Cerium,Neoymium,,Holmium,Yttrium,Thulium,Erbium,Dysprosium,Ytterbium,Gold,,Europium,Lanthanum,Lutetium","",-144.79181,65.42254,POINT (-144.7918099999999981 65.4225399999999979),124,GEO,https://mrdata.usgs.gov/mrds616
https://minmod.isi.edu/resource/site__mrdata-usgs-gov-mrds__10014443,https://mrdata.usgs.gov/mrds,10014443,United States,Colorado,EPSG:4326,"",Unnamed,",Yttrium,Holmium,Erbium,Neoymium,,Terbium,pper,Thulium,Praseodymium,Cerium,Europium,Ytterbium,,Lutetium,Dysprosium,Lanthanum,Gadolinium,Samarium","Apatite intrusion REE,Carbonatite REE",-107.08869,38.32806,POINT (-107.0886899999999997 38.3280600000000007),212,GEO,https://mrdata.usgs.gov/mrds111
https://minmod.isi.edu/resource/site__mrdata-usgs-gov-mrds__10003344,https://mrdata.usgs.gov/mrds,10003344,United States,Alaska,EPSG:4326,"",Porcupine River ancient channel placer,",Lutetium,Neoymium,Samarium,,Thulium,Holmium,Yttrium,Dysprosium,,Gadolinium,Europium,Ytterbium,Terbium,,Cerium,Erbium,Praseodymium,,Lanthanum","Fluvial placer tin,Paleoplacer tin,Residual placer tin",-141.27802,67.33292,POINT (-141.2780199999999979 67.3329200000000014),39,GEO,https://mrdata.usgs.gov/mrds1145
https://minmod.isi.edu/resource/site__mrdata-usgs-gov-mrds__10024956,https://mrdata.usgs.gov/mrds,10024956,Australia,Western Australia,EPSG:4326,"",Yoganup Extended,"Yttrium,Neoymium,Dysprosium,,Praseodymium,Gadolinium,Ytterbium,Terbium,Holmium,,,Erbium,Lutetium,Samarium,Europium,Zirnium,, ,Cerium,Thulium,Lanthanum","Heavy mineral sands,Paleoplacer heavy mineral sands",115.68266,-33.41264,POINT (115.6826599999999985 -33.4126400000000032),68,GEO,https://mrdata.usgs.gov/mrds454
https://minmod.isi.edu/resource/site__mrdata-usgs-gov-mrds__10272296,https://mrdata.usgs.gov/mrds,10272296,United States,New Mexico,EPSG:4326,"1,Blue Eagle No",Fridlund,"Holmium,Europium,Cerium,Neoymium,Terbium,Dysprosium,Samarium,Lanthanum,Thulium,Erbium,Praseodymium,Gadolinium,Yttrium,,Lutetium,,Ytterbium","Carbonatite niobium,NYF pegmatite,Peralkaline igneous HFSE- REE",-106.03778,36.49254,POINT (-106.0377799999999979 36.4925399999999982),188,GEO,https://mrdata.usgs.gov/mrds330
https://minmod.isi.edu/resource/site__mrdata-usgs-gov-mrds__10136457,https://mrdata.usgs.gov/mrds,10136457,United States,Alaska,EPSG:4326,"Nuahmah Disc,Bench Claim","","Ytterbium,Thulium,Europium,Cerium,Lutetium,Erbium,Neoymium,,Dysprosium,Silver,Yttrium,Lanthanum,Terbium,Holmium,Praseodymium,Gold,Samarium,Gadolinium","Fluvial placer REE,Fluvial placer tin",-155.34888,64.4064,POINT (-155.3488800000000083 64.4064000000000050),154,GEO,https://mrdata.usgs.gov/mrds169
https://minmod.isi.edu/resource/site__mrdata-usgs-gov-mrds__10071957,https://mrdata.usgs.gov/mrds,10071957,United States,Idaho,EPSG:4326,"",Skylark,"Dysprosium,Ytterbium,Lanthanum,,Europium,Terbium,Cerium,Erbium,Yttrium,Thulium,Samarium,Praseodymium,Lutetium,Holmium,Gadolinium,Neoymium",Unconformity- related REE,-113.4751,44.98629,POINT (-113.4750999999999976 44.9862899999999968),268,GEO,https://mrdata.usgs.gov/mrds317
https://minmod.isi.edu/resource/site__mrdata-usgs-gov-mrds__10087730,https://mrdata.usgs.gov/mrds,10087730,United States,Colorado,EPSG:4326,Haputa Extension,Haputa Ranch,"Yttrium,Neoymium,Europium,Erbium,Gadolinium,,Praseodymium,Lutetium,Thulium,Lanthanum,Holmium,Cerium,Ytterbium,,Gold,Dysprosium,Samarium,Terbium,","Apatite intrusion REE,Carbonatite REE,Peralkaline igneous HFSE- REE,Unconformity- related REE",-105.27501,38.15223,POINT (-105.2750099999999946 38.1522300000000030),259,GEO,https://mrdata.usgs.gov/mrds1080
https://minmod.isi.edu/resource/site__mrdata-usgs-gov-mrds__10012572,https://mrdata.usgs.gov/mrds,10012572,United States,Colorado,EPSG:4326,Penny Poker,Pennie Poker,"Yttrium,,Thulium,Dysprosium,Europium,Holmium,,Terbium,Neoymium,Gadolinium,Ytterbium,Lanthanum,Praseodymium,Cerium,Lutetium,Erbium,Samarium","Apatite intrusion REE,Peralkaline igneous HFSE- REE",-105.36168,38.24445,POINT (-105.3616800000000069 38.2444500000000005),259,GEO,https://mrdata.usgs.gov/mrds1069
https://minmod.isi.edu/resource/site__mrdata-usgs-gov-mrds__10159492,https://mrdata.usgs.gov/mrds,10159492,United States,Montana,EPSG:4326,"","","Dysprosium,,Europium,Praseodymium,Terbium,Lutetium,Thulium,Lanthanum,Holmium,Cerium,Samarium,Gadolinium,,Ytterbium,Neoymium,Erbium,Yttrium,","Carbonatite REE,Carbonatite niobium,Peralkaline igneous HFSE- REE",-114.45404,45.56238,POINT (-114.4540400000000062 45.5623799999999974),1655,GEO,https://mrdata.usgs.gov/mrds169
https://minmod.isi.edu/resource/site__mrdata-usgs-gov-mrds__10012887,https://mrdata.usgs.gov/mrds,10012887,United States,Colorado,EPSG:4326,"",Bob Cat,"Praseodymium,Dysprosium,Lutetium,Thulium,Cerium,Yttrium,,Terbium,,Neoymium,Ytterbium,,Lanthanum,Europium,Erbium,Gadolinium,Samarium,Holmium","Abyssal pegmatite REE,Peralkaline igneous HFSE- REE,Skarn uranium- REE",-105.73641,38.04945,POINT (-105.7364100000000064 38.0494500000000002),1695,GEO,https://mrdata.usgs.gov/mrds1602
https://minmod.isi.edu/resource/site__mrdata-usgs-gov-mrds__10022969,https://mrdata.usgs.gov/mrds,10022969,United States,Idaho,EPSG:4326,"",Union,"Ytterbium,Cerium,,Erbium,Samarium,Lanthanum,Thulium,Lutetium,Gold,Yttrium,Praseodymium,Silver,Holmium,Neoymium,Gadolinium,Dysprosium,Europium,Terbium",Oxidized intrusion- related gold,-115.79128,45.36017,POINT (-115.7912800000000004 45.3601699999999965),310,GEO,https://mrdata.usgs.gov/mrds138
https://minmod.isi.edu/resource/site__mrdata-usgs-gov-mrds__10079636,https://mrdata.usgs.gov/mrds,10079636,Australia,Western Australia,EPSG:4326,"Stage 1 Operations,Adamson Deposit",Eneabba,",Neoymium,Thulium,Erbium,Gadolinium,Yttrium,Europium,Holmium,Praseodymium,Lanthanum,Zirnium,Lutetium,Cerium,,Dysprosium,Samarium,Terbium,Ytterbium,,","Heavy mineral sands,Paleoplacer heavy mineral sands",115.26604,-29.89611,POINT (115.2660400000000038 -29.8961100000000002),51,GEO,https://mrdata.usgs.gov/mrds75
https://minmod.isi.edu/resource/site__mrdata-usgs-gov-mrds__10072013,https://mrdata.usgs.gov/mrds,10072013,United States,Idaho,EPSG:4326,Saddlerock,Thorite No,",Praseodymium,Erbium,Samarium,Lutetium,Lanthanum,Yttrium,Holmium,Cerium,Ytterbium,Gadolinium,Terbium,Neoymium,Dysprosium,Thulium,Europium","Apatite intrusion REE,Ion adsorption REE,Unconformity- related REE",-113.4742,44.90739,POINT (-113.4741999999999962 44.9073899999999995),268,GEO,https://mrdata.usgs.gov/mrds463
https://minmod.isi.edu/resource/site__mrdata-usgs-gov-mrds__10169198,https://mrdata.usgs.gov/mrds,10169198,United States,Idaho,EPSG:4326,"Lower Bear Valley,Big Meadows,Central Bear Valley",Bear Valley,",,Neoymium,Lutetium,Europium,,Holmium,Erbium,Lanthanum,Yttrium,Thulium,Praseodymium,Terbium,Dysprosium,Iron,Cerium,Gadolinium,Ytterbium,Samarium","Carbonatite niobium,Fluvial placer REE,Fluvial placer niobium-tantalum",-115.48765,44.29348,POINT (-115.4876500000000021 44.2934800000000024),319,GEO,https://mrdata.usgs.gov/mrds470
https://minmod.isi.edu/resource/site__mrdata-usgs-gov-mrds__10013770,https://mrdata.usgs.gov/mrds,10013770,United States,Colorado,EPSG:4326,"",Shirley,"Erbium,,Cerium,Yttrium,Praseodymium,Neoymium,,Samarium,Terbium,Lanthanum,Thulium,Gadolinium,Ytterbium,,,Europium,Lutetium,Dysprosium,Holmium","Abyssal pegmatite REE,NYF pegmatite,Simple pegmatite",-105.99365,38.60806,POINT (-105.9936500000000024 38.6080600000000018),231,GEO,https://mrdata.usgs.gov/mrds1366
https://minmod.isi.edu/resource/site__mrdata-usgs-gov-mrds__10240907,https://mrdata.usgs.gov/mrds,10240907,United States,Idaho,EPSG:4326,"Area A,Dry Valley,Harrington Peak,Area B",Dairy Syncline,"Erbium,Lanthanum,Ytterbium,Cerium,,Dysprosium,Neoymium,Gadolinium, ,Lutetium,Holmium,Samarium,Terbium,Praseodymium,Yttrium,,,Europium,Thulium","Apatite- nepheline- titanite intrusion,Phosphorite",-111.3391,42.61382,POINT (-111.3391000000000020 42.6138199999999969),203,GEO,https://mrdata.usgs.gov/mrds1380
https://minmod.isi.edu/resource/site__mrdata-usgs-gov-mrds__10101845,https://mrdata.usgs.gov/mrds,10101845,United States,Colorado,EPSG:4326,"",Little Eddy Quarry,",Europium,Thulium,Yttrium,Cerium,Lutetium,Dysprosium,Terbium,Erbium,Gadolinium,Neoymium,Praseodymium,,Lanthanum,Holmium,Samarium,Ytterbium","Abyssal pegmatite REE,NYF pegmatite,Peralkaline igneous HFSE- REE,Simple pegmatite",-105.05335,39.18889,POINT (-105.0533499999999947 39.1888900000000007),267,GEO,https://mrdata.usgs.gov/mrds749
https://minmod.isi.edu/resource/site__mrdata-usgs-gov-mrds__10013530,https://mrdata.usgs.gov/mrds,10013530,United States,Colorado,EPSG:4326,"Micalode Mine,Mica Hill Deposit,Mica Lode",Lode,"Cerium,Europium,,pper,,Dysprosium,,Lutetium,Yttrium,Gadolinium,Terbium,Thulium,,Ytterbium,,,Holmium,,Neoymium,Praseodymium,Samarium,Lanthanum,Erbium","Greisen beryllium±Li,NYF pegmatite,Simple pegmatite",-105.3025,38.4786,POINT (-105.3024999999999949 38.4786000000000001),1699,GEO,https://mrdata.usgs.gov/mrds457
https://minmod.isi.edu/resource/site__mrdata-usgs-gov-mrds__10173018,https://mrdata.usgs.gov/mrds,10173018,United States,Montana,EPSG:4326,"",Warm Springs Area,"Dysprosium,Terbium,Ytterbium,Erbium,Lanthanum,Europium,Samarium,Lutetium,Gadolinium,Praseodymium,Holmium,,,,Yttrium,,, ,Thulium,Cerium,Neoymium",Phosphorite,-111.95805,45.0405,POINT (-111.9580500000000001 45.0405000000000015),264,GEO,https://mrdata.usgs.gov/mrds990
https://minmod.isi.edu/resource/site__mrdata-usgs-gov-mrds__10009150,https://mrdata.usgs.gov/mrds,10009150,United States,Idaho,EPSG:4326,"",Rock Placer,"Yttrium,,Erbium,Praseodymium,Lanthanum,Samarium,Europium,Holmium,Dysprosium,Terbium,Ytterbium,Thulium,Neoymium,Gadolinium,Cerium,Lutetium",Fluvial placer niobium-tantalum,-114.40091,43.36656,POINT (-114.4009099999999961 43.3665599999999998),211,GEO,https://mrdata.usgs.gov/mrds44
https://minmod.isi.edu/resource/site__mrdata-usgs-gov-mrds__10002630,https://mrdata.usgs.gov/mrds,10002630,United States,Alaska,EPSG:4326,"",Happy,",Thulium,,Lanthanum,Europium,Praseodymium,Samarium,Gadolinium,Gold,Cerium,Dysprosium,Terbium,,Silver,Yttrium,Erbium,Holmium,,,Neoymium,Ytterbium,Lutetium","Epithermal mercury,Epizonal orogenic mercury",-158.01987,62.38217,POINT (-158.0198699999999974 62.3821700000000021),142,GEO,https://mrdata.usgs.gov/mrds60
https://minmod.isi.edu/resource/site__mrdata-usgs-gov-mrds__10071154,https://mrdata.usgs.gov/mrds,10071154,United States,Idaho,EPSG:4326,"",Pigtail Placer,"Erbium,Holmium,Yttrium,Ytterbium,Thulium,Lutetium,Dysprosium,,Zirnium,Cerium,Gold,Praseodymium,Europium,,Gadolinium,Terbium,Iron,Neoymium,Samarium,Lanthanum","Fluvial placer REE,Fluvial placer garnet,Fluvial placer niobium-tantalum,Paleoplacer heavy mineral sands",-114.74873,44.09799,POINT (-114.7487299999999948 44.0979900000000029),313,GEO,https://mrdata.usgs.gov/mrds383
https://minmod.isi.edu/resource/site__mrdata-usgs-gov-mrds__10016069,https://mrdata.usgs.gov/mrds,10016069,United States,Colorado,EPSG:4326,"",Blue Green Lodes,"Gadolinium,Lutetium,,Thulium,Yttrium,Samarium,Europium,Erbium,Neoymium,Dysprosium,,Lanthanum,Praseodymium,Ytterbium,Cerium,,Holmium,,Terbium","Greisen beryllium±Li,Simple pegmatite",-105.52308,39.06417,POINT (-105.5230799999999931 39.0641699999999972),248,GEO,https://mrdata.usgs.gov/mrds793
https://minmod.isi.edu/resource/site__mrdata-usgs-gov-mrds__10055909,https://mrdata.usgs.gov/mrds,10055909,United States,Washington,EPSG:4326,"",Wilmont Bar Placer,"Lutetium,Gold,Thulium,Holmium,Yttrium,Neoymium,Terbium,Erbium,Cerium,,Ytterbium,Dysprosium,Lanthanum,Gadolinium,Praseodymium,Samarium,Europium","Fluvial placer REE,Paleoplacer heavy mineral sands",-118.27278,48.04846,POINT (-118.2727799999999974 48.0484599999999986),144,GEO,https://mrdata.usgs.gov/mrds55
